FHRSID,LocalAuthorityBusinessID,BusinessName,BusinessType,BusinessTypeID,AddressLine1,AddressLine2,AddressLine3,AddressLine4,PostCode,RatingValue,RatingKey,RatingDate,HygieneScore,StructuralScore,ConfidenceInManagementScore,Location,Latitude,Longitude,NewRatingPending,Ward,Output Areas (OA),Middle Layer Super Output Areas (MSOA),Boundary,Lower Layer Super Output Areas (LSOA)
655885,10/00118/FOOD,American Kitchen,Other catering premises,7841,,,,,BA3 ,5,fhrs_5_en-gb,2015/08/13,5,5,5,,,,false,,,,,
1083612,18/00313/MIXED,Coffee#1,Restaurant/Cafe/Canteen,1,Unit 1,Royal View,Victoria Bridge Road,Westmoreland,BA2 3GG,5,fhrs_5_en-gb,2019/04/08,5,5,0,,,,false,,,,,
775531,15/00090/MIXED,Eat Thai/The Great Stone Baker,Mobile caterer,7846,,,,,BS14,5,fhrs_5_en-gb,2015/07/09,0,5,0,,,,false,,,,,
769655,15/00092/MIXED,Frothy Coffee Bar,Mobile caterer,7846,,,,,BS31,5,fhrs_5_en-gb,2015/06/08,0,5,0,,,,false,,,,,
1046935,18/00113/FOOD,Go Super You Limited,Manufacturers/packers,7839,,,,,BA1 ,5,fhrs_5_en-gb,2018/07/02,5,5,0,,,,false,,,,,
833871,14/00345/FOOD,Happystar Cakes,Other catering premises,7841,,,,,BA2 ,5,fhrs_5_en-gb,2015/12/11,5,5,5,,,,false,,,,,
205025,07/00336/MIXED,J R Refreshments,Mobile caterer,7846,,,,,BA1 ,5,fhrs_5_en-gb,2016/01/21,5,5,5,,,,false,,,,,
877849,15/00115/FOOD,Kismit Coriander,Other catering premises,7841,,,,,BA2 ,5,fhrs_5_en-gb,2016/06/06,5,5,5,,,,false,,,,,
1062087,18/00199/FOOD,LBH Superfoods,Manufacturers/packers,7839,,,,,BA2 ,5,fhrs_5_en-gb,2018/09/07,5,5,5,,,,false,,,,,
204981,07420/2700/2/000,Morrisons,Retailers - supermarkets/hypermarkets,7840,Morrisons Supermarket,London Road,Walcot,Bath,BA1 6AE,5,fhrs_5_en-gb,2016/01/14,,,,"(51.391627, -2.352295)",51.391627,-2.352295,false,36,492,6,1,96
205625,15620/1000/2/000,New Inn,Pub/bar/nightclub,7843,Bath Road,Farmborough,Bath,,BA2 0EG,5,fhrs_5_en-gb,2018/03/21,5,5,5,"(51.349768, -2.483732)",51.349768,-2.483732,false,8,127,16,1,40
570168,13/00056/MIXED,Pottick Pigs,Retailers - other,4613,,,,,BA1 ,5,fhrs_5_en-gb,2013/07/11,5,5,5,,,,false,,,,,
960201,17/00145/MIXED,Somer Dining And B Block,Caring Premises,5,Charterhouse Care Home,The Chocolate Quarter,Trajectus Way,Keynsham,BS31 2GL,5,fhrs_5_en-gb,2019/07/25,,,,,,,false,,,,,
828810,15/00188/FOOD,Tolputt's Cakes,Other catering premises,7841,,,,,BA2 ,5,fhrs_5_en-gb,2015/11/10,5,5,5,,,,false,,,,,
928747,16/00300/FOOD,Wild Fork West,Other catering premises,7841,,,,,BA1 ,5,fhrs_5_en-gb,2017/01/18,5,5,5,,,,false,,,,,
550916,13/00088/MIXED,Pit Stop,Mobile caterer,7846,Pitch 47,Street Trading,,,,4,fhrs_4_en-gb,2017/01/18,5,10,5,,,,false,,,,,
1066640,18/00229/FOOD,The H'eggs Company,Other catering premises,7841,,,,,BA1 ,4,fhrs_4_en-gb,2019/04/10,5,10,5,,,,false,,,,,
462994,12/00333/MIXED,Riverside Take Out,Restaurant/Cafe/Canteen,1,The Kiosk Cafe,Riverside Coach Park,City Centre,Bath,BA1 1UE,1,fhrs_1_en-gb,2019/06/25,15,10,20,,,,false,,,,,
205139,09/00164/FOOD,Blamey's Cakes,Other catering premises,7841,,,,,BA2 ,0,fhrs_exempt_en-gb,,,,,,,,false,,,,,
1010967,17/00313/MIXED,Hartley Farm - Mrs MR Meredith,Retailers - other,4613,,,,,BA1 ,0,fhrs_exempt_en-gb,,,,,,,,false,,,,,
928748,16/00301/MIXED,Red Apple South West,Mobile caterer,7846,,,,,BS39,0,fhrs_exempt_en-gb,,,,,,,,false,,,,,
205644,00820/3000/2/000,Peasedown St John Cricket Club,Other catering premises,7841,Peasedown Cricket Ground,Whitebrook Lane,Peasedown St. John,Bath,BA2 8LD,5,fhrs_5_en-gb,2012/01/23,5,5,5,"(51.314674, -2.438009)",51.314674,-2.438009,false,15,392,22,1,71
1008189,17/00297/MIXED,The Colombian Company Ltd,Restaurant/Cafe/Canteen,1,6 Abbeygate Street,City Centre,Bath,Bath And North East Somerset,BA1 1NP,5,fhrs_5_en-gb,2017/12/12,5,5,5,"(51.380321502685, -2.359148979187)",51.380321502685,-2.359148979187,false,35,12,7,1,20
204163,07430/0229/0/000,White Lion,Pub/bar/nightclub,7843,229 London Road East,Batheaston,Bath,,BA1 7NB,0,fhrs_exempt_en-gb,,,,,"(51.405627, -2.31777)",51.405627,-2.31777,false,1,35,10,1,23
204381,03130/1800/3/001,Batheaston Community Tea Shop,Restaurant/Cafe/Canteen,1,Football Ground,Coalpit Road,Batheaston,Bath,,5,fhrs_5_en-gb,2014/04/24,5,5,5,"(51.407101090539, -2.3171834365314)",51.407101090539,-2.3171834365314,false,1,35,10,1,23
205312,15497/1000/2/000,Paulton Rovers Social Club,Other catering premises,7841,Winterfield Road,Paulton,Bristol,Bath And North East Somerset,BS39 7RF,3,fhrs_3_en-gb,2018/06/05,5,10,10,"(51.302898, -2.497842)",51.302898,-2.497842,false,13,369,23,1,67
1026889,18/00004/MIXED,The Common Room,Pub/bar/nightclub,7843,Dorian Gray Ltd,2 Saville Row,Lansdown,Bath,BA1 2QP,0,fhrs_exempt_en-gb,,,,,"(51.386337280273, -2.3620409965515)",51.386337280273,-2.3620409965515,false,35,25,7,1,22
1029589,18/00025/MIXED,Whitehaven Residential Home,Caring Premises,5,Fosseway,Westfield,,,BA3 4AU,5,fhrs_5_en-gb,2019/01/21,5,5,5,"(51.27851486206, -2.4730050563812)",51.27851486206,-2.4730050563812,false,26,520,26,1,100
1028010,18/00019/FOOD,Ms Joanne Johnson,Other catering premises,7841,Orchard Barn,Branch Road,Hinton Charterhouse,Bath,BA2 7SZ,0,fhrs_exempt_en-gb,,,,,"(51.32447052002, -2.3269810676575)",51.32447052002,-2.3269810676575,false,10,54,10,1,113
1054852,18/00170/FOOD,Giddy Flamingo,Other catering premises,7841,56 Winchester Road,Oldfield Park,Bath,Bath And North East Somerset,BA2 3LF,0,fhrs_exempt_en-gb,,,,,"(51.376556396484, -2.3757998943329)",51.376556396484,-2.3757998943329,false,31,348,14,1,63
1109395,19/00068/MIXED,St Nicolas CofE Primary School,School/college/university,7845,St Nicholas Primary School,Kilmersdon Road,Radstock,Bath And North East Somerset,BA3 3QH,5,fhrs_5_en-gb,2019/06/25,5,5,5,"(51.289042, -2.446527)",51.289042,-2.446527,false,12,413,24,1,79
205350,00960/0003/0/000,Shakeaway,Restaurant/Cafe/Canteen,1,Ground Floor,3 Beau Street,City Centre,Bath,BA1 1QY,3,fhrs_3_en-gb,2018/01/09,5,10,10,"(51.380281, -2.360311)",51.380281,-2.360311,false,35,12,7,1,20
205252,11/00004/MIXED,Waterstones,Retailers - other,4613,Waterstones Booksellers Ltd,4 - 5 Milsom Street,City Centre,Bath,BA1 1DA,0,fhrs_exempt_en-gb,,,,,"(51.383515, -2.361516)",51.383515,-2.361516,false,35,11,7,1,20
948536,17/00041/MIXED,Ashes Hill Farm,Hotel/bed & breakfast/guest house,7842,Ashes Hill Farm Unregistred Dwellin,Kilkenny Lane,Englishcombe,Bath,,0,fhrs_exempt_en-gb,,,,,,,,false,,,,,
204563,09/00205/MIXED,Parade Park And Lambrettas Bar,Pub/bar/nightclub,7843,Lambrettas Bar & Bistro,8 North Parade,City Centre,Bath,BA2 4AL,5,fhrs_5_en-gb,2014/03/26,0,0,5,"(51.380687713623, -2.3565940856934)",51.380687713623,-2.3565940856934,false,35,13,7,1,21
204032,10/00133/MIXED,Wellow Valley Farm,Takeaway/sandwich shop,7844,Greenacres,Littleton Lane,Wellow,Bath,BA2 8NR,5,fhrs_5_en-gb,2014/10/30,0,0,5,"(51.310397, -2.383235)",51.310397,-2.383235,false,10,60,10,1,114
204983,10/00069/MIXED,Cookie Kat,Other catering premises,7841,,,,,BA1 ,0,fhrs_exempt_en-gb,,,,,,,,false,,,,,
205034,01830/1600/0/000,Hayesfield Girls Lower School,School/college/university,7845,Hayesfield Girls' School,Brougham Hayes,Westmoreland,Bath,BA2 3QX,5,fhrs_5_en-gb,2019/01/09,5,5,5,"(51.379091, -2.375892)",51.379091,-2.375892,false,33,559,12,1,112
1008193,17/00301/MIXED,Adel's Takeaway Ltd,Takeaway/sandwich shop,7844,Adel's,34 Shaftesbury Road,Oldfield Park,Bath,BA2 3LJ,2,fhrs_2_en-gb,2019/06/25,15,10,10,"(51.376502990723, -2.3776669502258)",51.376502990723,-2.3776669502258,false,31,347,14,1,63
205301,14720/0018/0/000,Cafe Retro,Restaurant/Cafe/Canteen,1,Cafe Retro,18 York Street,City Centre,Bath,BA1 1NG,5,fhrs_5_en-gb,2017/02/28,5,5,5,"(51.381097, -2.358364)",51.381097,-2.358364,false,35,12,7,1,20
1037511,18/00067/MIXED,St Mike's Cafe,Restaurant/Cafe/Canteen,1,St Michael With St Paul Church,Broad Street,City Centre,Bath,BA1 5LP,4,fhrs_4_en-gb,2018/03/05,5,10,5,"(51.38414, -2.359897)",51.38414,-2.359897,false,35,7,7,1,20
205670,11/00271/MIXED,Poundland Ltd,Retailers - other,4613,Poundland,62C High Street,Keynsham,,BS31 1EA,4,fhrs_4_en-gb,2018/07/31,5,10,5,"(51.414565, -2.498307)",51.414565,-2.498307,false,24,158,1,1,49
205535,14890/1100/2/000,Shockerwick House Nursing Home,Caring Premises,5,Shockerwick House,Shockerwick Farm Lane,Bathford,Bath,BA1 7LL,5,fhrs_5_en-gb,2019/05/13,5,5,5,"(51.416193, -2.285862)",51.416193,-2.285862,false,1,41,10,1,26
926449,16/00294/MIXED,Blue Quails Deli,Restaurant/Cafe/Canteen,1,7 Bridge Street,City Centre,Bath,Bath And North East Somerset,BA2 4AS,5,fhrs_5_en-gb,2018/04/13,,,,"(51.382958, -2.358594)",51.382958,-2.358594,false,35,11,7,1,20
565699,12/00250/MIXED,Chestnuts House,Hotel/bed & breakfast/guest house,7842,16 Henrietta Road,Bathwick,Bath,,BA2 6LY,0,fhrs_exempt_en-gb,,,,,"(51.387188, -2.354273)",51.387188,-2.354273,false,35,19,7,1,21
565702,12/00282/MIXED,Sir Walter Elliot's House,Hotel/bed & breakfast/guest house,7842,95 Sydney Place,Bathwick,Bath,Bath And North East Somerset,BA2 6NE,0,fhrs_exempt_en-gb,,,,,"(51.384987, -2.350635)",51.384987,-2.350635,false,22,74,12,1,30
204555,08/00181/MIXED,Little Stars Nursery,Caring Premises,5,Church,Bristol Road,Farrington Gurney,Bristol,BS39 6TG,5,fhrs_5_en-gb,2019/02/05,5,5,5,"(51.299546, -2.534181)",51.299546,-2.534181,false,3,131,23,1,43
1059255,18/00189/MIXED,Lottie's Ice Creams,Other catering premises,7841,,,,,BA1 ,0,fhrs_exempt_en-gb,,,,,,,,false,,,,,
205004,10400/0008/A/000,Eastern Eye,Restaurant/Cafe/Canteen,1,The Eastern Eye,8A Quiet Street,City Centre,Bath,BA1 2JS,4,fhrs_4_en-gb,2019/01/15,5,5,10,"(51.38337, -2.361903)",51.38337,-2.361903,false,35,11,7,1,20
205203,14120/0008/0/000,Greggs,Retailers - other,4613,8 Westgate Street,City Centre,Bath,,BA1 1EQ,5,fhrs_5_en-gb,2017/11/08,,,,"(51.38134765625, -2.3614270687103)",51.38134765625,-2.3614270687103,false,35,10,7,1,20
204878,08380/0023/0/000,The Victoria Hotel,Pub/bar/nightclub,7843,23 Millmead Road,Twerton,Bath,,BA2 3JW,4,fhrs_4_en-gb,2015/11/10,5,10,5,"(51.378337, -2.383659)",51.378337,-2.383659,false,32,531,13,1,101
951366,17/00082/MIXED,Talbot Inn (Hungry Horse),Pub/bar/nightclub,7843,Talbot Inn,Bath Road,Keynsham,Bristol,BS31 1NP,5,fhrs_5_en-gb,2018/07/19,5,5,0,"(51.412465, -2.492949)",51.412465,-2.492949,false,16,156,3,1,45
951034,17/00081/MIXED,The Fromeway,Pub/bar/nightclub,7843,Fromeway Inn,62 Frome Road,Radstock,Bath And North East Somerset,BA3 3LG,5,fhrs_5_en-gb,2018/02/22,5,5,5,"(51.29037, -2.437591)",51.29037,-2.437591,false,12,417,24,1,79
952194,17/00090/MIXED,Gracewell Of Bath,Caring Premises,5,Gracewells Of Bath,Clarks Way,Odd Down,Bath,BA2 7TR,5,fhrs_5_en-gb,2019/02/27,0,0,5,,,,false,,,,,
205120,10/00091/MIXED,Parade Bar,School/college/university,7845,Block 2W,University Of Bath Campus,Claverton Down,Bath,BA2 7BT,5,fhrs_5_en-gb,2019/05/09,5,5,5,"(51.38045, -2.330685)",51.38045,-2.330685,false,22,580,12,1,29
1097363,19/00008/MIXED,Wheatsheaf,Pub/bar/nightclub,7843,The Wheatsheaf Inn,Wells Road,Corston,Bath,BA2 9HB,5,fhrs_5_en-gb,2019/07/11,5,5,0,"(51.379712, -2.468013)",51.379712,-2.468013,false,8,125,16,1,41
205499,08260/3900/2/000,Cross Keys Inn Public House,Pub/bar/nightclub,7843,Cross Keys Inn,Midford Road,Odd Down,Bath,BA2 5RZ,5,fhrs_5_en-gb,2018/04/16,5,5,5,"(51.355838, -2.364672)",51.355838,-2.364672,false,18,262,17,1,4
204161,09/00048/MIXED,The Community Bus,Mobile caterer,7846,Bath & North East Somerset Council,Access Road To Council Depot,Radstock,Bath And North East Somerset,BA3 2AA,5,fhrs_5_en-gb,2014/03/12,0,0,0,"(51.291349, -2.465981)",51.291349,-2.465981,false,11,284,25,1,8
1098981,19/00016/MIXED,Ole Tapas,Other catering premises,7841,1 John Street,City Centre,Bath,Bath And North East Somerset,BA1 2JL,3,fhrs_3_en-gb,2019/01/15,10,5,10,"(51.383441, -2.362076)",51.383441,-2.362076,false,35,11,7,1,20
204269,08/00125/MIXED,McColls,Retailers - other,4613,Martin McColls,1 Rosewell Court,Bath,,BA1 2AG,5,fhrs_5_en-gb,2017/09/06,,,,"(51.381284, -2.364731)",51.381284,-2.364731,false,34,194,9,1,55
204585,15697/0112/3/C01,Charcoal Grill,Takeaway/sandwich shop,7844,Charcoal Grill  Savoy Rooms,112 High Street,Midsomer Norton,Radstock,BA3 2DA,4,fhrs_4_en-gb,2018/03/13,5,10,5,"(51.285927, -2.481469)",51.285927,-2.481469,false,11,291,25,1,11
204127,15867/9010/2/000,The Regents,Caring Premises,5,Back Lane,Keynsham,Bristol,Bath And North East Somerset,BS31 1DG,5,fhrs_5_en-gb,2014/03/27,5,0,5,"(51.415458, -2.497656)",51.415458,-2.497656,false,24,158,1,1,49
909465,15/00034/MIXED,Le Bistrot Pierre,Restaurant/Cafe/Canteen,1,Le Bistro Pierre,4 Princes Buildings,City Centre,Bath,BA1 2ED,5,fhrs_5_en-gb,2019/02/05,5,5,5,"(51.385287, -2.361242)",51.385287,-2.361242,false,35,4,7,1,22
984830,17/00214/MIXED,Costa,Restaurant/Cafe/Canteen,1,Unit 4 Unoccupied,Mero Retail Park,Lower Bristol Road,Westmoreland,,5,fhrs_5_en-gb,2019/06/12,5,5,5,,,,false,,,,,
204263,11/00143/MIXED,The Orchard Extra Care Housing Scheme,Restaurant/Cafe/Canteen,1,The Orchard,Rock Hall Lane,Combe Down,Bath,BA2 5JF,5,fhrs_5_en-gb,2019/02/28,0,5,0,"(51.358239, -2.34987)",51.358239,-2.34987,false,19,104,18,1,38
948538,17/00044/MIXED,3 Cafe,Restaurant/Cafe/Canteen,1,Three Ways School,180 Frome Road,Odd Down,Bath,BA2 5RF,5,fhrs_5_en-gb,2019/03/20,0,0,5,"(51.356642, -2.371802)",51.356642,-2.371802,false,18,262,17,1,4
205703,10/00093/MIXED,Rustico Italian Bistro,Restaurant/Cafe/Canteen,1,2 Margaret's Buildings,City Centre,Bath,,BA1 2LP,4,fhrs_4_en-gb,2018/02/14,5,10,5,"(51.386667, -2.365766)",51.386667,-2.365766,false,35,23,7,1,22
204241,18483/1100/2/000,Somer Community Housing Trust,Other catering premises,7841,Meeting Room,23 Hinton Close,Saltford,Bristol,BS31 3AY,5,fhrs_5_en-gb,2014/03/20,0,0,5,"(51.403722, -2.458469)",51.403722,-2.458469,false,17,429,16,1,80
914657,16/00148/MIXED,Pizza GoGo,Takeaway/sandwich shop,7844,4 Cleveland Place East,Walcot,Bath,,BA1 5DJ,5,fhrs_5_en-gb,2017/01/17,,,,"(51.390031, -2.356393)",51.390031,-2.356393,false,36,485,6,1,96
428852,12/00192/MIXED,Hare And Hounds Public House,Pub/bar/nightclub,7843,Hare & Hounds,Lansdown Road,Lansdown,Bath,BA1 5TJ,3,fhrs_3_en-gb,2018/03/15,10,10,10,"(51.40339, -2.372081)",51.40339,-2.372081,false,21,233,7,1,1
570169,13/00113/MIXED,Best Of British,Retailers - other,4613,12 Broad Street,City Centre,Bath,,BA1 5LJ,5,fhrs_5_en-gb,2018/03/23,5,5,5,"(51.38412, -2.360572)",51.38412,-2.360572,false,35,11,7,1,20
205373,07/00009/FOOD,Lakeland Limited,Retailers - other,4613,Lakeland,21 New Bond Street,City Centre,Bath,BA1 1BA,0,fhrs_exempt_en-gb,,,,,"(51.383195, -2.360349)",51.383195,-2.360349,false,35,11,7,1,20
204223,15706/0000/3/C01,Little Fidgets Playgroup,Caring Premises,5,Farrington Gurney Village Hall,Church Lane,Farrington Gurney,Bristol,BS39 6UA,0,fhrs_exempt_en-gb,,,,,"(51.29859, -2.5309)",51.29859,-2.5309,false,3,131,23,1,43
920571,16/00241/MIXED,Fire And Brew,Restaurant/Cafe/Canteen,1,49 Moorland Road,Oldfield Park,Bath,,BA2 3PJ,4,fhrs_4_en-gb,2019/06/20,5,10,5,"(51.376797, -2.378718)",51.376797,-2.378718,false,31,347,14,1,63
204540,08870/0037/0/000,The Old Red House,Hotel/bed & breakfast/guest house,7842,Red House Hotel,37 Newbridge Road,Newbridge,Bath,BA1 3HE,0,fhrs_exempt_en-gb,,,,,"(51.384304, -2.387546)",51.384304,-2.387546,false,34,208,9,1,54
205245,08530/0024/0/000,Livingstone Public House,Pub/bar/nightclub,7843,The Livingston Hotel,24 - 25 Moorland Road,Oldfield Park,Bath,BA2 3PW,5,fhrs_5_en-gb,2014/04/01,0,0,5,"(51.377714, -2.379142)",51.377714,-2.379142,false,31,346,14,1,63
642878,14/00073/MIXED,Guinea Lane Nursery,Caring Premises,5,St Marys Church Hall,Guinea Lane,City Centre,Bath,BA1 5NB,5,fhrs_5_en-gb,2019/05/23,5,5,5,"(51.387537, -2.360498)",51.387537,-2.360498,false,35,17,7,1,22
1062084,18/00196/MIXED,Sweet Little Things,Restaurant/Cafe/Canteen,1,6 Lower Borough Walls,City Centre,Bath,,BA1 1QR,4,fhrs_4_en-gb,2018/07/24,5,10,5,"(51.3796941, -2.3604231)",51.3796941,-2.3604231,false,35,12,7,1,20
1130974,19/00106/MIXED,Jesse Davies Chef,Other catering premises,7841,Gather Cafe,280 High Street,Batheaston,Bath,BA1 7RA,5,fhrs_5_en-gb,2019/06/04,5,5,5,"(51.4055088, -2.3204434)",51.4055088,-2.3204434,false,1,35,10,1,23
204741,07/00141/MIXED,The Secret Garden Cafe,Restaurant/Cafe/Canteen,1,Prior Park Garden Centre,Prior Park Road,Widcombe,Bath,BA2 4NF,5,fhrs_5_en-gb,2018/02/20,5,5,5,"(51.374134, -2.350739)",51.374134,-2.350739,false,33,574,12,1,110
898321,16/00104/MIXED,Charlies Catering,Mobile caterer,7846,,,,,BS31,5,fhrs_5_en-gb,2016/07/12,5,5,5,,,,false,,,,,
850183,13/00139/MIXED,The Bell Inn (Bath) Ltd,Pub/bar/nightclub,7843,The Bell,103 Walcot Street,Bath,,BA1 5BW,4,fhrs_4_en-gb,2018/01/30,5,5,10,"(51.38754, -2.35942)",51.38754,-2.35942,false,35,1,7,1,20
482009,12/00352/MIXED,McDonalds,Restaurant/Cafe/Canteen,1,Mcdonalds Restaurants Ltd,40 Southgate Street,Bath,,BA1 1TG,5,fhrs_5_en-gb,2018/03/01,0,5,0,"(51.379429, -2.359917)",51.379429,-2.359917,false,35,12,7,1,20
205515,15972/1400/3/C01,Orangery Restaurant,Restaurant/Cafe/Canteen,1,Whitehall Garden Centre,Norton Lane,Whitchurch,Bristol,BS14 0BT,4,fhrs_4_en-gb,2018/06/21,5,5,10,"(51.395996, -2.556318)",51.395996,-2.556318,false,6,85,21,1,31
204311,10/00300/MIXED,New Manor Farm Shop Tearooms,Restaurant/Cafe/Canteen,1,New Manor Farm,Bath Road,West Harptree,Bristol,BS40 6HW,5,fhrs_5_en-gb,2018/07/03,0,5,0,"(51.322482, -2.611769)",51.322482,-2.611769,false,2,274,21,1,6
875561,16/00128/MIXED,Sixth Form Coffee Shop,School/college/university,7845,St Gregory's Catholic College,Combe Hay Lane,Odd Down,Bath,BA2 8PA,5,fhrs_5_en-gb,2018/10/19,0,0,0,"(51.353525, -2.382202)",51.353525,-2.382202,false,30,327,19,1,61
696914,14/00219/MIXED,Turtle Bay,Restaurant/Cafe/Canteen,1,Turtle Bay Bath,11 Bridge Street,City Centre,Bath,BA2 4AS,5,fhrs_5_en-gb,2017/11/29,5,5,5,"(51.382958, -2.358594)",51.382958,-2.358594,false,35,11,7,1,20
204613,04920/0088/0/000,Odd Down Pharmacy,Retailers - other,4613,88 Frome Road,Odd Down,Bath,Bath And North East Somerset,BA2 2PP,0,fhrs_exempt_en-gb,,,,,"(51.359428, -2.378072)",51.359428,-2.378072,false,30,331,19,1,60
996077,17/00232/MIXED,Action On Hearing Loss,Other catering premises,7841,Royal National Institute For Deaf P,Wells Road,Lyncombe,Bath,BA2 3AP,0,fhrs_exempt_en-gb,,,,,"(51.377361297607, -2.363205909729)",51.377361297607,-2.363205909729,false,33,561,12,1,109
204591,16110/1100/2/000,Brass Mill Public House,Pub/bar/nightclub,7843,The Brass Mill,Avon Mill Lane,Keynsham,Bristol,BS31 2UG,5,fhrs_5_en-gb,2017/03/29,0,5,0,"(51.41664, -2.492448)",51.41664,-2.492448,false,16,152,3,1,45
633684,13/00011/MIXED,Pure Taste,Restaurant/Cafe/Canteen,1,11 High Street,Midsomer Norton,,,BA3 2LE,5,fhrs_5_en-gb,2018/03/15,5,5,5,"(51.28608, -2.483637)",51.28608,-2.483637,false,11,291,25,1,11
204973,09900/1300/2/000,Sainsbury's,Retailers - supermarkets/hypermarkets,7840,Sainsburys Petrol Station,Pines Way,Westmoreland,Bath,BA2 3ET,5,fhrs_5_en-gb,2014/03/18,5,5,5,"(51.381648, -2.372134)",51.381648,-2.372134,false,33,559,12,1,112
633688,13/00187/MIXED,Druid Arms,Pub/bar/nightclub,7843,Bromley Road,Stanton Drew,Bristol,Bath And North East Somerset,BS39 4EJ,3,fhrs_3_en-gb,2018/07/27,10,5,10,"(51.365724, -2.57994)",51.365724,-2.57994,false,5,101,20,1,34
909469,16/00075/MIXED,Coffee To Go Cafe At Marks & Spencer,Restaurant/Cafe/Canteen,1,Marks And Spencer Unit B,Weston Lock Retail Park,Lower Bristol Road,Westmoreland,BA2 1EP,5,fhrs_5_en-gb,2016/08/10,5,0,5,"(51.380767, -2.391093)",51.380767,-2.391093,false,28,482,11,1,92
948543,17/00053/MIXED,Bearflat Tandoori,Restaurant/Cafe/Canteen,1,136 Wells Road,Lyncombe,Bath,,BA2 3AH,4,fhrs_4_en-gb,2018/09/12,,,,"(51.374054, -2.367618)",51.374054,-2.367618,false,18,264,17,1,3
205667,07/00218/FOOD,Homebase Ltd,Retailers - other,4613,Pines Way,Westmoreland,Bath,Bath And North East Somerset,BA2 3ET,0,fhrs_exempt_en-gb,,,,,"(51.381648, -2.372134)",51.381648,-2.372134,false,33,559,12,1,112
205600,09/00086/MIXED,Breakfast Club And After School Club,School/college/university,7845,Castle Primary School,Newlands Road,Keynsham,Bristol,BS31 2TS,0,fhrs_exempt_en-gb,,,,,"(51.405509, -2.506835)",51.405509,-2.506835,false,37,191,2,1,51
1049515,18/00127/MIXED,River Adventures,Mobile caterer,7846,Street Record,Broad Quay,City Centre,Bath,,0,fhrs_exempt_en-gb,,,,,"(55.853005000005, -4.2619550000766)",55.853005000005,-4.2619550000766,false,,,,,
1097364,19/00009/MIXED,Tivoli Cinema,Restaurant/Cafe/Canteen,1,6 - 8 Dorchester Street,Bath,,,BA1 1SS,5,fhrs_5_en-gb,2019/04/26,5,0,0,"(51.378238, -2.358356)",51.378238,-2.358356,false,35,13,7,1,21
205313,15513/0047/0/000,Yung Kee,Takeaway/sandwich shop,7844,Yung Kee Take Away,47 Bath Hill,Keynsham,Bristol,BS31 1HW,1,fhrs_1_en-gb,2019/03/05,15,15,20,"(51.411996, -2.493304)",51.411996,-2.493304,false,16,156,3,1,45
520691,12/00279/MIXED,Beech Cottage Bed And Breakfast,Hotel/bed & breakfast/guest house,7842,32 Combe Road,Combe Down,Bath,Bath And North East Somerset,BA2 5HY,0,fhrs_exempt_en-gb,,,,,"(51.359101, -2.350265)",51.359101,-2.350265,false,19,118,18,1,38
204352,15498/0059/0/000,Freeways,Caring Premises,5,Hillsborough House,59 - 61 Charlton Road,Keynsham,,BS31 2JQ,5,fhrs_5_en-gb,2014/03/24,0,0,5,"(51.41262, -2.507273)",51.41262,-2.507273,false,24,166,1,1,50
205220,01260/0020/0/000,Mencap Home,Caring Premises,5,20 Bennett Street,City Centre,Bath,Bath And North East Somerset,BA1 2QL,0,fhrs_exempt_en-gb,,,,,"(51.386841, -2.361944)",51.386841,-2.361944,false,35,22,7,1,22
1049514,18/00125/MIXED,Saltford Primary School (Zest Catering),School/college/university,7845,Saltford Primary School,Claverton Road,Saltford,Bristol,BS31 3DW,5,fhrs_5_en-gb,2019/06/19,5,5,5,"(51.400894, -2.461747)",51.400894,-2.461747,false,17,422,16,1,80
462978,12/00269/FOOD,Ms Lyn Garwood,Other catering premises,7841,,,,,BA1 ,5,fhrs_5_en-gb,2016/01/05,5,5,5,,,,false,,,,,
205299,15811/9259/3/CO1,Bristol Outdoor Pursuits - Hamburger Hill,Restaurant/Cafe/Canteen,1,Bristol Outdoor Pursuits  Common Wo,Hunstrete,Marksbury,Bath,BS39 4NT,4,fhrs_4_en-gb,2018/02/26,5,10,5,"(51.360093, -2.506721)",51.360093,-2.506721,false,8,130,16,1,40
204008,15770/9156/2/000,Keynsham Baptist Church Hall,Other catering premises,7841,Keynsham Baptist Church,High Street,Keynsham,Bristol,BS31 1DS,0,fhrs_exempt_en-gb,,,,,"(51.415608, -2.498218)",51.415608,-2.498218,false,24,158,1,1,49
924512,16/00271/MIXED,Absurd Bird,Restaurant/Cafe/Canteen,1,20 St Lawrence Street,City Centre,Bath,,BA1 1AN,5,fhrs_5_en-gb,2018/07/17,5,5,5,"(51.378855, -2.359223)",51.378855,-2.359223,false,35,13,7,1,21
914614,16/00030/MIXED,Whidlecombe Farm B+B,Hotel/bed & breakfast/guest house,7842,Whidlecombe Farm,Priston Hill,Priston,Bath,BA2 9EB,0,fhrs_exempt_en-gb,,,,,"(51.34308, -2.437518)",51.34308,-2.437518,false,9,69,22,1,28
741432,15/00049/MIXED,The Bath Studio School,School/college/university,7845,The Link School,Frome Road,Odd Down,Bath,,5,fhrs_5_en-gb,2018/01/25,0,5,5,,,,false,,,,,
688891,14/00267/MIXED,The Ale House,Pub/bar/nightclub,7843,Ale House,1 York Street,City Centre,Bath,BA1 1NG,4,fhrs_4_en-gb,2018/09/06,5,10,5,"(51.381097, -2.358364)",51.381097,-2.358364,false,35,12,7,1,20
244506,12/00101/MIXED,Lamp Post Villa,Hotel/bed & breakfast/guest house,7842,3 Crescent Gardens,Kingsmead,Bath,Bath And North East Somerset,BA1 2NA,5,fhrs_5_en-gb,2015/07/08,5,5,5,"(51.383973, -2.370256)",51.383973,-2.370256,false,34,209,9,1,115
359646,11/00305/MIXED,"Breakfast, Afterschool And Holiday Club",School/college/university,7845,St John's Rc Primary School,Oldfield Lane,Oldfield Park,Bath,BA2 3NR,5,fhrs_5_en-gb,2015/07/02,5,5,5,"(51.373132, -2.375125)",51.373132,-2.375125,false,31,353,14,1,64
622046,13/00230/MIXED,Cowtastic Playbarn,Restaurant/Cafe/Canteen,1,Farrington Farm Shop,Home Farm,Main Street,Farrington Gurney,BS39 6UB,5,fhrs_5_en-gb,2018/03/06,0,5,5,"(51.297851, -2.529256)",51.297851,-2.529256,false,3,133,23,1,43
914627,16/00070/MIXED,Neals Yard Remedies,Retailers - other,4613,11 Northumberland Place,Bath,,,BA1 5AR,0,fhrs_exempt_en-gb,,,,,"(51.382405, -2.359854)",51.382405,-2.359854,false,35,11,7,1,20
205429,11010/0167/0/000,Lido Chef,Takeaway/sandwich shop,7844,167 Rush Hill,Southdown,Bath,Bath And North East Somerset,BA2 2QZ,4,fhrs_4_en-gb,2019/02/21,5,10,5,"(51.362426757812, -2.3847470283508)",51.362426757812,-2.3847470283508,false,30,576,19,1,62
359672,12/00190/MIXED,Hill House Guest Accomodation,Hotel/bed & breakfast/guest house,7842,Hill House,25 Belvedere,Lansdown,Bath,BA1 5ED,5,fhrs_5_en-gb,2015/07/03,0,0,0,"(51.38819, -2.361854)",51.38819,-2.361854,false,21,249,7,1,2
624015,13/00125/MIXED,Bath Brew House,Pub/bar/nightclub,7843,The Bath Brew House,14 James Street West,City Centre,Bath,BA1 2BX,3,fhrs_3_en-gb,2018/10/12,10,10,10,"(51.380834, -2.3649)",51.380834,-2.3649,false,34,196,9,1,55
1052189,18/00145/MIXED,The Big Brekkie (Breakfast Club),School/college/university,7845,St Saviours Junior School,Eldon Place,Larkhall,Bath,BA1 6TG,5,fhrs_5_en-gb,2018/03/13,5,5,5,"(51.399616241455, -2.3470530509949)",51.399616241455,-2.3470530509949,false,23,218,4,1,56
688882,14/00017/MIXED,L G Convenience Store (Best One Express),Retailers - other,4613,Best-one Xpress,33 Upper Bloomfield Road,Odd Down,Bath,BA2 2RY,5,fhrs_5_en-gb,2014/07/31,5,0,5,"(51.357269, -2.381098)",51.357269,-2.381098,false,30,334,19,1,60
205137,06660/1000/3/C01,Peter Pan Playgroup,Caring Premises,5,Weston Methodist Church Hall,Weston Methodist Church,Newbridge Hill,Newbridge,BA1 3PR,5,fhrs_5_en-gb,2014/04/22,0,5,0,"(51.386621, -2.391072)",51.386621,-2.391072,false,29,318,8,1,16
204020,05040/0009/0/000,Martini Restaurant,Restaurant/Cafe/Canteen,1,Cafe Martini,9 George Street,City Centre,Bath,BA1 2EH,5,fhrs_5_en-gb,2018/03/15,5,5,0,"(51.384554, -2.362788)",51.384554,-2.362788,false,35,4,7,1,22
205679,05/00200/MIXED,Jollys Of Bath,Retailers - other,4613,Jolly's,7 - 14 Milsom Street,City Centre,Bath,BA1 1DD,0,fhrs_exempt_en-gb,,,,,"(51.383927, -2.362036)",51.383927,-2.362036,false,35,11,7,1,20
1029586,18/00021/MIXED,Ole Bar And Restaurant Tapas,Restaurant/Cafe/Canteen,1,Gascoyne Place,Sawclose,City Centre,Bath,BA1 1EY,5,fhrs_5_en-gb,2018/03/07,5,5,5,"(51.382164001465, -2.3619940280914)",51.382164001465,-2.3619940280914,false,35,10,7,1,20
205257,00030/0003/0/000,Three Abbey Green Guest House,Hotel/bed & breakfast/guest house,7842,3 Abbey Green,City Centre,Bath,Bath And North East Somerset,BA1 1NW,0,fhrs_exempt_en-gb,,,,,"(51.380332, -2.358732)",51.380332,-2.358732,false,35,12,7,1,20
917886,16/00253/MIXED,Domino's Pizza,Takeaway/sandwich shop,7844,Dominos Pizza,40 Moorland Road,Oldfield Park,Bath,BA2 3PN,5,fhrs_5_en-gb,2019/07/12,0,0,5,"(51.377105, -2.37826)",51.377105,-2.37826,false,31,347,14,1,63
204573,06/00195/MIXED,Pret A Manger,Takeaway/sandwich shop,7844,Pret A Manger,2 Stall Street,City Centre,Bath,BA1 1QL,5,fhrs_5_en-gb,2016/10/21,0,5,0,"(51.381397, -2.360235)",51.381397,-2.360235,false,35,11,7,1,20
205710,11/00052/MIXED,M&M Kebab And Pizza,Takeaway/sandwich shop,7844,28A High Street,Keynsham,,,BS31 1DQ,3,fhrs_3_en-gb,2018/06/26,10,10,10,"(51.417006, -2.49934)",51.417006,-2.49934,false,24,158,1,1,49
205632,13960/0011/0/000,Co-Op,Retailers - supermarkets/hypermarkets,7840,Co-Operative Retail Services Ltd,11 Wellsway,Bath,,BA2 4QL,5,fhrs_5_en-gb,2014/04/09,0,0,0,"(51.374365, -2.366098)",51.374365,-2.366098,false,18,265,17,1,3
205180,15679/9183/2/000,Nor West Bowling Club,Other catering premises,7841,Fosseway,Westfield,Midsomer Norton,Radstock,BA3 4AY,5,fhrs_5_en-gb,2018/01/25,5,5,5,"(51.280669, -2.469859)",51.280669,-2.469859,false,26,516,26,1,98
204723,14120/0035/0/000,Boots UK Ltd,Retailers - other,4613,Boots The Chemists,34 - 35 Westgate Street,City Centre,Bath,BA1 1EL,0,fhrs_exempt_en-gb,,,,,"(51.381591796875, -2.3610548973084)",51.381591796875,-2.3610548973084,false,35,10,7,1,20
813338,15/00202/MIXED,Wild Flour Cake Ltd,Manufacturers/packers,7839,Hayeswood Farm,Hayeswood Road,Timsbury,Bath,BA2 0FQ,5,fhrs_5_en-gb,2015/10/14,5,5,5,"(51.329857, -2.493096)",51.329857,-2.493096,false,14,456,16,1,88
204580,09/00067/MIXED,Tesco,Retailers - supermarkets/hypermarkets,7840,Tesco Express,13 - 20 High Street,Upper Weston,Bath,BA1 4BX,5,fhrs_5_en-gb,2018/07/09,0,5,0,"(51.395606994629, -2.3901278972626)",51.395606994629,-2.3901278972626,false,20,549,5,1,108
205528,15685/0000/2/000,Radstock Town FC And Social Club,Other catering premises,7841,Radstock Town Football Club,Southfield,Radstock,Bath And North East Somerset,BA3 3NZ,4,fhrs_4_en-gb,2015/02/18,5,10,5,"(51.290102, -2.439754)",51.290102,-2.439754,false,12,417,24,1,79
204374,05260/0064/0/000,Edgar Town House,Hotel/bed & breakfast/guest house,7842,Edgar Townhouse,64 Great Pulteney Street,Bathwick,Bath,BA2 4DN,0,fhrs_exempt_en-gb,,,,,"(51.384348, -2.353921)",51.384348,-2.353921,false,35,2,7,1,21
204375,05700/0000/2/000,Foxhill Community Centre,Other catering premises,7841,Hawthorn Grove,Combe Down,Bath,Bath And North East Somerset,BA2 5QA,0,fhrs_exempt_en-gb,,,,,"(51.359664, -2.363137)",51.359664,-2.363137,false,19,121,18,1,36
204620,11/00021/MIXED,Albany Guest House (Bath) Ltd,Hotel/bed & breakfast/guest house,7842,Albany Guest House,24 Crescent Gardens,Kingsmead,Bath,BA1 2NB,5,fhrs_5_en-gb,2016/01/06,5,5,5,"(51.383611, -2.36817)",51.383611,-2.36817,false,34,209,9,1,115
205708,03290/0128/0/000,Trowbridge House Public House,Pub/bar/nightclub,7843,Trowbridge House Inn,128 - 130 Coronation Avenue,Southdown,Bath,BA2 2JP,0,fhrs_exempt_en-gb,,,,,"(51.371344, -2.385727)",51.371344,-2.385727,false,32,537,13,1,104
1030662,18/00037/MIXED,Cafe Oulala,Restaurant/Cafe/Canteen,1,5 Burton Street,City Centre,Bath,,BA1 1BN,4,fhrs_4_en-gb,2018/04/18,,,,"(51.38278, -2.360705)",51.38278,-2.360705,false,35,11,7,1,20
1002170,17/00265/FOOD,Beth Bakes Bath,Other catering premises,7841,Flat 2,1 Fountain Buildings,City Centre,Bath,BA1 5DU,0,fhrs_exempt_en-gb,,,,,"(51.385765075684, -2.3608870506287)",51.385765075684,-2.3608870506287,false,35,7,7,1,20
204897,09/00147/MIXED,The Green Shop Ltd,Restaurant/Cafe/Canteen,1,The Green Shop,10 South Road,Midsomer Norton,Radstock,BA3 2EZ,0,fhrs_exempt_en-gb,,,,,"(51.285758, -2.480995)",51.285758,-2.480995,false,11,291,25,1,11
974187,17/00177/MIXED,Pop-Floss Fun,Other catering premises,7841,20 Holloway,Widcombe,Bath,,BA2 4PU,0,fhrs_exempt_en-gb,,,,,"(51.376415252685, -2.3629109859467)",51.376415252685,-2.3629109859467,false,33,571,12,1,109
802202,15/00065/MIXED,Holiday Inn Express,Hotel/bed & breakfast/guest house,7842,Holiday Inn Express Hotel,Brougham Hayes,Westmoreland,Bath,BA2 3QU,5,fhrs_5_en-gb,2018/04/12,5,5,5,"(51.380315, -2.375327)",51.380315,-2.375327,false,33,559,12,1,112
750010,15/00059/FOOD,HLGS Cooks,Other catering premises,7841,,,,,BA1 ,5,fhrs_5_en-gb,2015/04/14,5,5,5,,,,false,,,,,
204408,09340/1100/2/000,Bath Masonic Hall Association,Other catering premises,7841,Masonic Hall,12 Old Orchard Street,City Centre,Bath,BA1 1JU,5,fhrs_5_en-gb,2019/01/16,5,5,5,"(51.380271, -2.358042)",51.380271,-2.358042,false,35,12,7,1,20
205471,08/00007/MIXED,Temple Cloud Village Hall,Other catering premises,7841,Meadway,Temple Cloud,Bristol,Bath And North East Somerset,BS39 5BD,0,fhrs_exempt_en-gb,,,,,"(51.320924, -2.540973)",51.320924,-2.540973,false,2,270,20,1,7
204644,00820/0019/B/000,Ken's Fish Bar,Takeaway/sandwich shop,7844,19B Bath Road,Peasedown St. John,Bath,Bath And North East Somerset,BA2 8DH,4,fhrs_4_en-gb,2018/07/12,5,10,5,"(51.315041, -2.428628)",51.315041,-2.428628,false,15,378,22,1,73
204029,08/00129/MIXED,McColls,Retailers - other,4613,Martin Mccolls,43 Chandag Road,Keynsham,Bristol,BS31 1PW,3,fhrs_3_en-gb,2019/01/17,5,10,10,"(51.40841293335, -2.4880900382996)",51.40841293335,-2.4880900382996,false,16,157,3,1,45
203990,09630/0016/0/000,Methodist Homes For The Aged,Caring Premises,5,Stratton House,16 Park Lane,Lower Weston,Bath,BA1 2XH,5,fhrs_5_en-gb,2018/07/31,0,0,0,"(51.388665, -2.37919)",51.388665,-2.37919,false,34,203,9,1,54
204666,09/00143/MIXED,Monkton Combe Garage,Retailers - other,4613,Warminster Road,Monkton Combe,Bath,Bath And North East Somerset,BA2 7HY,5,fhrs_5_en-gb,2015/11/04,5,5,5,"(51.359295, -2.313643)",51.359295,-2.313643,false,10,56,10,1,113
205209,10/00084/MIXED,Caffe Nero,Restaurant/Cafe/Canteen,1,6 Dorchester Street,Bath,,,BA1 1SS,5,fhrs_5_en-gb,2016/11/11,5,5,5,"(51.378238, -2.358356)",51.378238,-2.358356,false,35,13,7,1,21
905655,16/00205/MIXED,Yuyo,Retailers - other,4613,,,,,BA1 ,0,fhrs_exempt_en-gb,,,,,,,,false,,,,,
974183,17/00173/MIXED,Mama Bear's Day Nursery Ltd.,Caring Premises,5,Mama Bear's Day Nursery,59 Bristol Road,Whitchurch,Bristol,BS14 0PU,5,fhrs_5_en-gb,2019/06/27,0,0,0,"(51.405437469482, -2.5581150054932)",51.405437469482,-2.5581150054932,false,7,404,20,1,75
204022,08970/0008/0/000,Po Na Na,Pub/bar/nightclub,7843,8 - 9 North Parade,City Centre,Bath,,BA2 4AL,4,fhrs_4_en-gb,2014/10/03,0,10,10,"(51.380689, -2.356594)",51.380689,-2.356594,false,35,13,7,1,21
1012769,17/00327/MIXED,St Johns Ce Va Primary School,School/college/university,7845,Redfield Road,Midsomer Norton,Radstock,Bath And North East Somerset,BA3 2JN,5,fhrs_5_en-gb,2018/02/27,,,,"(51.284652709961, -2.4873070716858)",51.284652709961,-2.4873070716858,false,25,304,27,1,13
205611,15906/1400/2/000,Royal British Legion,Other catering premises,7841,The Royal British Legion,Staunton Lane,Whitchurch,Bristol,BS14 0QF,5,fhrs_5_en-gb,2018/01/18,5,5,5,"(51.406325, -2.556904)",51.406325,-2.556904,false,7,401,20,1,75
914602,15/00212/MIXED,Burger King,Takeaway/sandwich shop,7844,Burger King,4 Cheap Street,City Centre,Bath,BA1 1NE,3,fhrs_3_en-gb,2018/05/29,5,10,10,"(51.381721, -2.359834)",51.381721,-2.359834,false,35,10,7,1,20
764769,15/00045/MIXED,Lidl,Retailers - supermarkets/hypermarkets,7840,Fieldings Road,Twerton,Bath,,BA2 3FX,5,fhrs_5_en-gb,2017/01/30,5,5,5,,,,false,,,,,
204244,13960/0468/0/000,The Red Lion Sizzling Pub,Pub/bar/nightclub,7843,Red Lion,468 Wellsway,Bath,Bath And North East Somerset,BA2 2UA,4,fhrs_4_en-gb,2018/05/29,,,,"(51.358687, -2.376343)",51.358687,-2.376343,false,30,331,19,1,60
204416,08/00204/MIXED,St Stephen's Church,Other catering premises,7841,Lansdown Road,Lansdown,Bath,Bath And North East Somerset,BA1 5SX,5,fhrs_5_en-gb,2013/07/16,5,5,5,"(51.393721, -2.364327)",51.393721,-2.364327,false,21,237,7,1,59
775530,14/00367/MIXED,Poundland,Retailers - other,4613,33 Westgate Street,City Centre,Bath,,BA1 1EL,3,fhrs_3_en-gb,2017/08/15,10,10,10,"(51.381601, -2.361055)",51.381601,-2.361055,false,35,10,7,1,20
205394,09/00123/MIXED,Wild Cafe,Restaurant/Cafe/Canteen,1,10A Queen Street,Bath,,,BA1 1HE,4,fhrs_4_en-gb,2018/05/14,5,10,5,"(51.382731, -2.36184)",51.382731,-2.36184,false,35,11,7,1,20
655886,12/00379/MIXED,Ring O Bells,Pub/bar/nightclub,7843,Ring Of Bells,The Street,Compton Martin,Bristol,BS40 6JE,5,fhrs_5_en-gb,2019/02/27,5,5,5,"(51.311307, -2.657832)",51.311307,-2.657832,false,4,87,21,1,32
204431,09/00139/MIXED,Thai Balcony Mini Mart,Retailers - other,4613,40 Monmouth Street,City Centre,Bath,,BA1 2AN,3,fhrs_3_en-gb,2017/02/13,10,5,10,"(51.381667, -2.362938)",51.381667,-2.362938,false,34,194,9,1,55
205075,11090/0004/0/000,Schwartz Bros,Takeaway/sandwich shop,7844,4 Sawclose,City Centre,Bath,Bath And North East Somerset,BA1 1EY,5,fhrs_5_en-gb,2019/07/24,5,0,5,"(51.382164, -2.361993)",51.382164,-2.361993,false,35,10,7,1,20
847567,16/00035/MIXED,The Golden Fleece,Pub/bar/nightclub,7843,The Golden Fleece  Avon Buildings,Lower Bristol Road,Westmoreland,Bath,BA2 1ES,5,fhrs_5_en-gb,2018/08/30,5,5,5,"(51.380732, -2.388205)",51.380732,-2.388205,false,32,578,13,1,103
205210,10/00102/MIXED,St Francis Church,Other catering premises,7841,Warwick Road,Keynsham,Bristol,Bath And North East Somerset,BS31 2QN,0,fhrs_exempt_en-gb,,,,,"(51.407724, -2.510482)",51.407724,-2.510482,false,37,188,2,1,51
1030665,18/00040/MIXED,The Patch,Restaurant/Cafe/Canteen,1,University Of Bath,University Of Bath Campus,Claverton Down,Bath,BA2 7AY,5,fhrs_5_en-gb,2019/05/09,0,5,0,"(51.380451202393, -2.3306849002838)",51.380451202393,-2.3306849002838,false,22,580,12,1,29
204665,10360/1000/2/000,Bath And Country Club,Other catering premises,7841,Bath & County Club,Queen's Parade,Bath,,BA1 2NJ,4,fhrs_4_en-gb,2019/02/28,5,5,10,"(51.383927, -2.365068)",51.383927,-2.365068,false,34,193,9,1,55
1130973,19/00105/MIXED,Green Cuisine,Mobile caterer,7846,Street Record,Tow Path Kennet And Avon Canal,Claverton,Bath,,5,fhrs_5_en-gb,2019/04/23,5,5,5,,,,false,,,,,
828808,15/00163/MIXED,Midford Road Nursery Ltd,Caring Premises,5,Midford Road Nursery,105 Midford Road,Odd Down,Bath,BA2 5RX,5,fhrs_5_en-gb,2019/05/16,5,5,5,"(51.356586, -2.366775)",51.356586,-2.366775,false,18,262,17,1,4
205509,15770/0020/0/000,The Old Bank Public House,Pub/bar/nightclub,7843,The Old Bank,20 High Street,Keynsham,Bristol,BS31 1DQ,3,fhrs_3_en-gb,2015/06/11,10,10,5,"(51.417006, -2.49934)",51.417006,-2.49934,false,24,158,1,1,49
205187,16016/1400/2/000,Carpenters Arms,Pub/bar/nightclub,7843,Wick Lane,Stanton Drew,,,BS39 4BX,5,fhrs_5_en-gb,2019/07/08,5,5,0,"(51.356483, -2.55324)",51.356483,-2.55324,false,5,102,20,1,34
807746,15/00237/MIXED,Grove Lodge,Hotel/bed & breakfast/guest house,7842,11 Lambridge,Lambridge,Bath,,BA1 6BJ,0,fhrs_exempt_en-gb,,,,,"(51.395941, -2.343589)",51.395941,-2.343589,false,23,230,4,1,58
924517,16/00276/MIXED,The Grumpy Baker,Restaurant/Cafe/Canteen,1,The Gumpy Baker,1 Moorland Road,Oldfield Park,Bath,BA2 3PJ,4,fhrs_4_en-gb,2016/11/16,5,5,10,"(51.376797, -2.378718)",51.376797,-2.378718,false,31,347,14,1,63
204210,06/00350/MIXED,The Luncheon Club,Other catering premises,7841,The Salvation Army,Green Park Road,City Centre,Bath,BA1 1XE,5,fhrs_5_en-gb,2017/04/07,0,0,0,"(51.381309, -2.365565)",51.381309,-2.365565,false,34,196,9,1,55
462967,12/00212/MIXED,Clandown Stores,Retailers - other,4613,Post Office,Fosse Way,Clandown,Radstock,BA3 3BL,0,fhrs_exempt_en-gb,,,,,"(51.300032, -2.455297)",51.300032,-2.455297,false,12,421,24,1,76
704036,14/00179/MIXED,Pong Cheese Ltd,Retailers - other,4613,The Industrial Quarter,16 Foxcote Avenue,Peasedown St. John,Bath,BA2 8SF,5,fhrs_5_en-gb,2019/07/22,5,5,5,"(51.311787, -2.413505)",51.311787,-2.413505,false,10,57,10,1,114
205196,15291/9244/2/000,Stockwood Vale Golf Club,Other catering premises,7841,Stockwood Lane,Keynsham,Bristol,Bath And North East Somerset,BS31 2ER,5,fhrs_5_en-gb,2017/09/20,0,5,0,"(51.41887, -2.527432)",51.41887,-2.527432,false,24,161,1,1,48
867735,16/00064/MIXED,Chew Kitchen,Restaurant/Cafe/Canteen,1,Acacia House,Bell Lane,Chew Stoke,Bristol,BS40 8EA,5,fhrs_5_en-gb,2019/07/08,5,5,5,,,,false,,,,,
204475,15882/9223/2/000,Cypress Lodge,Caring Premises,5,The Witheys,Whitchurch,Bristol,Bath And North East Somerset,BS14 0QB,4,fhrs_4_en-gb,2015/12/22,10,5,5,"(51.407214, -2.557087)",51.407214,-2.557087,false,7,401,20,1,75
205680,05/00228/MIXED,Jacarandas,Restaurant/Cafe/Canteen,1,109B High Street,Midsomer Norton,Radstock,,BA3 2DA,5,fhrs_5_en-gb,2018/06/26,5,5,5,"(51.286, -2.481227)",51.286,-2.481227,false,11,291,25,1,11
914632,16/00086/MIXED,Subway (McColl's),Takeaway/sandwich shop,7844,Martin Mccoll Ltd,102 - 103 High Street,Midsomer Norton,,BA3 2DA,4,fhrs_4_en-gb,2018/07/25,5,10,5,"(51.285927, -2.481469)",51.285927,-2.481469,false,11,291,25,1,11
898323,16/00165/MIXED,The Courtyard Cafe,Restaurant/Cafe/Canteen,1,The Courtyard,3 Lilliput Court,City Centre,Bath,BA1 1ND,5,fhrs_5_en-gb,2018/10/25,5,5,5,"(51.380611, -2.358418)",51.380611,-2.358418,false,35,12,7,1,20
204489,15475/0055/0/000,Chish And Fips,Takeaway/sandwich shop,7844,55 Wells Road,Westfield,Radstock,,BA3 3SB,5,fhrs_5_en-gb,2018/06/14,5,5,5,"(51.289073, -2.459304)",51.289073,-2.459304,false,26,507,26,1,99
204348,14710/0001/3/C05,Travelodge,Hotel/bed & breakfast/guest house,7842,Travel Lodge (royal York),1 York Buildings,George Street,City Centre,BA1 2EB,5,fhrs_5_en-gb,2014/03/28,5,5,0,"(51.384873, -2.361325)",51.384873,-2.361325,false,35,11,7,1,20
204453,10/00361/FOOD,Timsbury Pre-School,Caring Premises,5,Timsbury Pre School  St Mary's C Of,Lansdown View,Timsbury,Bath,BA2 0JR,4,fhrs_4_en-gb,2018/05/04,5,5,10,"(51.329083, -2.471703)",51.329083,-2.471703,false,14,457,16,1,88
491464,12/00308/MIXED,High Street Store,Retailers - other,4613,108 High Street,Twerton,Bath,Bath And North East Somerset,BA2 1DB,4,fhrs_4_en-gb,2015/10/26,5,5,10,"(51.379713, -2.394648)",51.379713,-2.394648,false,28,482,11,1,92
204067,05330/0010/0/000,Bartlett & Sons Ltd,Manufacturers/packers,7839,Bartletts,10 - 11 Green Street,City Centre,Bath,BA1 2JZ,5,fhrs_5_en-gb,2015/09/02,5,5,5,"(51.38333, -2.360451)",51.38333,-2.360451,false,35,11,7,1,20
952199,17/00095/MIXED,Piattino Restaurant,Restaurant/Cafe/Canteen,1,7 Edgar Buildings,City Centre,Bath,,BA1 2EE,1,fhrs_1_en-gb,2019/01/04,15,10,20,"(51.385195, -2.361931)",51.385195,-2.361931,false,35,4,7,1,22
205485,11/00073/FOOD,Mo's Kitchen,Other catering premises,7841,Walton House,High Street,Freshford,Bath,BA2 7WF,0,fhrs_exempt_en-gb,,,,,"(51.339512, -2.303717)",51.339512,-2.303717,false,10,53,10,1,113
1155951,19/00155/MIXED,Somervale School,School/college/university,7845,Redfield Road,Midsomer Norton,Bath And North East Somerset,,BA3 2JD,5,fhrs_5_en-gb,2019/06/21,0,5,5,"(51.284178, -2.487)",51.284178,-2.487,false,25,305,27,1,13
205230,11/00292/FOOD,Breakfast Club,School/college/university,7845,Farmborough Vc Primary School,The Street,Farmborough,Bath,BA2 0FY,0,fhrs_exempt_en-gb,,,,,"(51.343085, -2.492937)",51.343085,-2.492937,false,8,129,16,1,40
1037507,18/00063/MIXED,Rose And Crown,Pub/bar/nightclub,7843,Rose & Crown Inn,High Street,Hinton Charterhouse,Bath,BA2 7SN,5,fhrs_5_en-gb,2018/02/21,5,5,5,"(51.3222671, -2.3285876)",51.3222671,-2.3285876,false,10,55,10,1,114
204253,04920/1700/3/C01,Sunshine Playgroup,Caring Premises,5,Sunshine Pre-School  Rush Hill Unit,78 Frome Road,Odd Down,Bath,BA2 2QG,5,fhrs_5_en-gb,2015/09/11,0,0,0,"(51.360356, -2.380191)",51.360356,-2.380191,false,30,330,19,1,19
204245,05/00296/FOOD,Keynsham Childrens Centre,Caring Premises,5,65 West View Road,Keynsham,Bristol,Bath And North East Somerset,BS31 2UE,5,fhrs_5_en-gb,2014/03/13,5,0,5,"(51.414534, -2.501312)",51.414534,-2.501312,false,24,159,1,1,49
204484,14710/0001/3/C02,Ask,Restaurant/Cafe/Canteen,1,Ask Pizza And Pasta Restaurant 1 Yo,George Street,City Centre,Bath,BA1 2EB,5,fhrs_5_en-gb,2019/08/01,0,5,5,"(51.384873, -2.361325)",51.384873,-2.361325,false,35,11,7,1,20
204564,02750/0006/0/000,The San Francisco Fudge Factory,Manufacturers/packers,7839,San Francisco Fudge Factory,6 Church Street,City Centre,Bath,BA1 1NL,5,fhrs_5_en-gb,2017/03/13,5,5,5,"(51.380781, -2.358678)",51.380781,-2.358678,false,35,12,7,1,20
914633,16/00088/MIXED,The Cedar Tree Community Cafe,Restaurant/Cafe/Canteen,1,Christ Church,Julian Road,Lansdown,Bath,BA1 2RH,5,fhrs_5_en-gb,2016/09/09,0,0,5,"(51.387927, -2.362398)",51.387927,-2.362398,false,21,249,7,1,2
205546,00250/0009/1/000,Woods Restaurant,Restaurant/Cafe/Canteen,1,9 - 13 Alfred Street,City Centre,Bath,Bath And North East Somerset,BA1 2QX,5,fhrs_5_en-gb,2019/01/29,5,5,5,"(51.385796, -2.362453)",51.385796,-2.362453,false,35,4,7,1,22
772009,15/00072/MIXED,Farringtons Fish And Chips,Takeaway/sandwich shop,7844,Farrington Farm Shop,Home Farm,Main Street,Farrington Gurney,BS39 6UB,5,fhrs_5_en-gb,2018/06/29,0,5,5,"(51.297851, -2.529256)",51.297851,-2.529256,false,3,133,23,1,43
204307,10/00254/MIXED,Queen's Road Methodist Church Pre-School,Caring Premises,5,Keynsham Methodist Church,Queens Road,Keynsham,Bristol,BS31 2NN,0,fhrs_exempt_en-gb,,,,,"(51.409229, -2.507638)",51.409229,-2.507638,false,24,169,1,1,50
1089271,18/00346/FOOD,Sugarcane Studio,Other catering premises,7841,,,,,BA1 ,0,fhrs_exempt_en-gb,,,,,,,,false,,,,,
204802,06/00102/MIXED,St Nicholas Pre-school,Caring Premises,5,St Nicholas Primary School,Kilmersdon Road,Radstock,Bath And North East Somerset,BA3 3QH,0,fhrs_exempt_en-gb,,,,,"(51.289042, -2.446527)",51.289042,-2.446527,false,12,413,24,1,79
204434,09/00159/MIXED,The Thoughtful Bread Co,Retailers - other,4613,Green Park Station,Green Park Road,City Centre,Bath,BA1 1JB,3,fhrs_3_en-gb,2017/05/19,10,10,10,"(51.381538, -2.366917)",51.381538,-2.366917,false,34,195,9,1,55
1020982,07510/0004/0/000,Oxfam Bookshop,Retailers - other,4613,4 - 5 Lower Borough Walls,City Centre,Bath,Bath And North East Somerset,BA1 1QR,0,fhrs_exempt_en-gb,,,,,"(51.379707336426, -2.3604218959808)",51.379707336426,-2.3604218959808,false,35,12,7,1,20
952198,17/00094/MIXED,Avon Rugby Football Club,Pub/bar/nightclub,7843,Avon Rugby Club,London Road West,Lower Swainswick,Bath,BA1 7DD,1,fhrs_1_en-gb,2017/06/21,5,10,20,"(51.401384, -2.330074)",51.401384,-2.330074,false,23,216,4,1,58
709578,14/00303/MIXED,Forum Coffee House,Restaurant/Cafe/Canteen,1,3 Forum Buildings,St James's Parade,Bath,,BA1 1UG,5,fhrs_5_en-gb,2017/03/30,5,5,5,"(51.378645, -2.3605)",51.378645,-2.3605,false,35,14,7,1,20
681668,14/00145/MIXED,West Harptree Memorial Hall,Other catering premises,7841,Compton Martin Road,West Harptree,Bristol,,BS40 6EG,0,fhrs_exempt_en-gb,,,,,"(51.308105, -2.636755)",51.308105,-2.636755,false,2,274,21,1,6
204340,15247/1400/2/000,Crossways Tavern,Pub/bar/nightclub,7843,Crossway Tavern,Redfield Road,Midsomer Norton,,BA3 2JH,0,fhrs_exempt_en-gb,,,,,"(51.283382, -2.49019)",51.283382,-2.49019,false,25,302,27,1,13
997546,17/00241/MIXED,Giggling Squid,Restaurant/Cafe/Canteen,1,Chockdee Limited,Bluecoat House,Sawclose,City Centre,BA1 1EY,5,fhrs_5_en-gb,2018/02/28,0,5,0,"(51.382164001465, -2.3619940280914)",51.382164001465,-2.3619940280914,false,35,10,7,1,20
205082,18470/9170/2/000,West Harptree Post Office Stores,Retailers - other,4613,Post Office Stores,The Street,West Harptree,Bristol,BS40 6EA,3,fhrs_3_en-gb,2019/02/11,10,10,10,"(51.308895, -2.630338)",51.308895,-2.630338,false,2,274,21,1,6
554686,13/00031/FOOD,Jan's Cakes,Other catering premises,7841,,,,,BA3 ,0,fhrs_exempt_en-gb,,,,,,,,false,,,,,
205361,08/00205/MIXED,Komedia,Restaurant/Cafe/Canteen,1,22 - 23 Westgate Street,City Centre,Bath,Bath And North East Somerset,BA1 1EP,5,fhrs_5_en-gb,2019/01/25,0,5,0,"(51.38149, -2.36193)",51.38149,-2.36193,false,35,10,7,1,20
205439,05990/1100/0/010,Banthon Oriental,Retailers - other,4613,10 Brookside House,High Street,Upper Weston,Bath,BA1 4BY,5,fhrs_5_en-gb,2019/07/31,5,5,5,"(51.396507, -2.392536)",51.396507,-2.392536,false,20,549,5,1,108
204466,16171/0024/0/000,High Littleton Recreation Club,Other catering premises,7841,Butlass Close,High Littleton,Bristol,Bath And North East Somerset,BS39 6HD,0,fhrs_exempt_en-gb,,,,,"(51.321454, -2.50707)",51.321454,-2.50707,false,3,135,23,1,42
1029594,18/00030/MIXED,"Abbey Hotel, Bath",Hotel/bed & breakfast/guest house,7842,Abbey Hotel,1 North Parade,City Centre,Bath,BA1 1LF,3,fhrs_3_en-gb,2019/05/15,5,10,10,"(51.380623, -2.357484)",51.380623,-2.357484,false,35,13,7,1,21
204711,11/00177/FOOD,Treats With A Twist,Other catering premises,7841,,,,,BS39,0,fhrs_exempt_en-gb,,,,,,,,false,,,,,
1071481,18/00255/MIXED,The Masala Kitchen,Takeaway/sandwich shop,7844,Masala Kitchen,7 High Street,Upper Weston,Bath,BA1 4BX,4,fhrs_4_en-gb,2019/05/21,5,10,5,"(51.395606994629, -2.3901278972626)",51.395606994629,-2.3901278972626,false,20,549,5,1,108
205262,03470/0016/0/000,Royal Park Guest House,Hotel/bed & breakfast/guest house,7842,16 Crescent Gardens,Kingsmead,Bath,,BA1 2NA,0,fhrs_exempt_en-gb,,,,,"(51.383973, -2.370256)",51.383973,-2.370256,false,34,209,9,1,115
570172,13/00129/FOOD,Dolce,Other catering premises,7841,,,,,BA1 ,0,fhrs_exempt_en-gb,,,,,,,,false,,,,,
204080,09380/0014/0/000,Astor House,Hotel/bed & breakfast/guest house,7842,14 Oldfield Road,Oldfield Park,Bath,,BA2 3ND,5,fhrs_5_en-gb,2015/08/18,5,5,5,"(51.374754, -2.37123)",51.374754,-2.37123,false,33,565,12,1,112
204440,06/00098/MIXED,Walcot Lunch Club,Other catering premises,7841,Nexus Methodist Church,Nelson Place East,Walcot,Bath,BA1 5DA,4,fhrs_4_en-gb,2018/09/24,5,0,10,"(51.389586, -2.358244)",51.389586,-2.358244,false,35,15,7,1,22
666595,14/00115/MIXED,Pensford Post Office,Retailers - other,4613,Pensford Hill,Pensford,Bristol,,BS39 4AF,5,fhrs_5_en-gb,2018/09/20,5,5,5,"(51.371998, -2.550439)",51.371998,-2.550439,false,7,399,20,1,74
204584,12680/5200/2/000,Darling Deli,Retailers - other,4613,Isabella House,The Avenue,Combe Down,Bath,BA2 5EH,5,fhrs_5_en-gb,2018/02/27,5,5,5,"(51.359866, -2.346895)",51.359866,-2.346895,false,19,117,18,1,38
1099734,19/00022/MIXED,Hondo Sushi,Restaurant/Cafe/Canteen,1,8 - 9 St James's Parade,Bath,,,BA1 1UL,5,fhrs_5_en-gb,2019/04/08,5,5,5,"(51.379326, -2.361123)",51.379326,-2.361123,false,35,14,7,1,20
690489,14/00201/MIXED,Scribblers,Retailers - other,4613,18 Union Street,City Centre,Bath,,BA1 1RS,0,fhrs_exempt_en-gb,,,,,"(51.382017, -2.360283)",51.382017,-2.360283,false,35,10,7,1,20
205146,10/00381/FOOD,Bath Fire Station Canteen,Restaurant/Cafe/Canteen,1,Bath Fire Station,Bathwick Street,Bathwick,Bath,BA2 6PU,5,fhrs_5_en-gb,2014/04/04,5,0,0,"(51.388877, -2.354847)",51.388877,-2.354847,false,36,498,6,1,96
962193,17/00149/MIXED,Antica Pulteney Bridge,Restaurant/Cafe/Canteen,1,5 Argyle Street,Bathwick,Bath,,BA2 4BA,4,fhrs_4_en-gb,2019/03/11,,,,"(51.383383, -2.357505)",51.383383,-2.357505,false,35,11,7,1,20
204092,07/00004/MIXED,Anabelle's Guest House,Hotel/bed & breakfast/guest house,7842,6 Manvers Street,Bath,,,BA1 1JQ,0,fhrs_exempt_en-gb,,,,,"(51.379122, -2.357271)",51.379122,-2.357271,false,35,13,7,1,21
1153075,19/00144/MIXED,Rufus Catering,Pub/bar/nightclub,7843,New Inn,23 - 24 Monmouth Place,City Centre,Bath,BA1 2AY,5,fhrs_5_en-gb,2019/06/14,5,5,5,"(51.382899, -2.365807)",51.382899,-2.365807,false,34,212,9,1,115
204772,11/00066/MIXED,Dando's Stores,Retailers - other,4613,Windsor House,High Street,High Littleton,Bristol,BS39 6JD,3,fhrs_3_en-gb,2019/03/04,5,10,10,"(51.323793, -2.51087)",51.323793,-2.51087,false,3,139,23,1,42
205659,05990/1800/2/000,All Saints Church Centre Lunch Club,Other catering premises,7841,All Saints Church Centre,High Street,Upper Weston,Bath,BA1 4BX,5,fhrs_5_en-gb,2019/07/16,0,0,0,"(51.395661, -2.390172)",51.395661,-2.390172,false,20,549,5,1,108
1056097,18/00175/FOOD,UK Hemp Network,Distributors/Transporters,7,279 Bloomfield Road,Bloomfield,Bath,Bath And North East Somerset,BA2 2NU,0,fhrs_exempt_en-gb,,,,,"(51.3632412, -2.3768835)",51.3632412,-2.3768835,false,18,259,17,1,4
1083614,18/00315/MIXED,Mulberry Park E T,School/college/university,7845,Mulberry Park Educate Together Prim,Mulberry Way,Combe Down,Bath,BA2 5BU,5,fhrs_5_en-gb,2018/10/10,5,0,0,,,,false,,,,,
205015,07/00034/HELA,Blacks,Retailers - other,4613,Blacks,7 - 8 Abbeygate Street,City Centre,Bath,BA1 1NP,0,fhrs_exempt_en-gb,,,,,"(51.380321, -2.359148)",51.380321,-2.359148,false,35,12,7,1,20
204332,15725/1000/2/000,China Garden,Takeaway/sandwich shop,7844,13 Lilian Terrace,Paulton,,,BS39 7QN,5,fhrs_5_en-gb,2015/07/13,5,5,5,"(51.305109, -2.500262)",51.305109,-2.500262,false,13,366,23,1,69
204792,10/00012/MIXED,The Cedars Bed And Breakfast,Hotel/bed & breakfast/guest house,7842,The Cedars,4 Bathford Hill,Bathford,Bath,BA1 7SL,0,fhrs_exempt_en-gb,,,,,"(51.400824, -2.304756)",51.400824,-2.304756,false,1,42,10,1,26
914650,16/00137/MIXED,Jars Meze,Restaurant/Cafe/Canteen,1,6 Northumberland Place,Bath,,,BA1 5AR,3,fhrs_3_en-gb,2018/03/21,10,10,10,"(51.382405, -2.359854)",51.382405,-2.359854,false,35,11,7,1,20
807743,15/00215/FOOD,Kate Laws,Other catering premises,7841,,,,,BA1 ,0,fhrs_exempt_en-gb,,,,,,,,false,,,,,
853065,16/00009/FOOD,Royal High School,School/college/university,7845,The Royal High School,Lansdown Road,Lansdown,Bath,BA1 5SZ,5,fhrs_5_en-gb,2019/07/09,0,5,0,"(51.397206, -2.365433)",51.397206,-2.365433,false,21,234,7,1,1
205721,12850/1100/2/000,Southdown Methodist Church,Other catering premises,7841,The Hollow,Southdown,Bath,Bath And North East Somerset,BA2 1NJ,5,fhrs_5_en-gb,2015/03/19,5,0,0,"(51.371066, -2.398912)",51.371066,-2.398912,false,27,436,15,1,83
481989,10/00088/MIXED,Henrietta House,Hotel/bed & breakfast/guest house,7842,Henrietta House Residential Home,33 Henrietta Street,Bathwick,Bath,BA2 6LR,5,fhrs_5_en-gb,2018/07/27,5,5,0,"(51.384376, -2.356522)",51.384376,-2.356522,false,35,5,7,1,21
204330,15701/9095/2/000,Manor Farm House Residential Home,Caring Premises,5,Manor Farm House Nursing Home,Church Street,Radstock,Bath And North East Somerset,BA3 3QG,5,fhrs_5_en-gb,2018/09/12,0,5,0,"(51.290703, -2.447159)",51.290703,-2.447159,false,12,413,24,1,79
204541,01180/1300/3/C01,Booker Cash And Carry (Butchery Department),Distributors/Transporters,7,Booker Business Centre,Brook Road,Twerton,Bath,BA2 3RP,5,fhrs_5_en-gb,2008/05/15,5,5,0,"(51.381508, -2.381846)",51.381508,-2.381846,false,32,578,13,1,103
909471,16/00083/MIXED,Rice And Spice,Takeaway/sandwich shop,7844,Rice & Spice,2 Fortescue Road,Radstock,,BA3 3PH,3,fhrs_3_en-gb,2019/03/21,10,10,5,"(51.292024, -2.44743)",51.292024,-2.44743,false,12,413,24,1,79
204784,09/00140/MIXED,8E Chelsea Road,Restaurant/Cafe/Canteen,1,The Chelsea Cafe,8E Chelsea Road,Newbridge,Bath,BA1 3DU,3,fhrs_3_en-gb,2019/02/26,10,10,10,"(51.385101, -2.38853)",51.385101,-2.38853,false,34,208,9,1,54
205538,14940/4000/2/000,Newton Mill Caravan Park,Retailers - other,4613,Newton Mill Caravan And Camping Sit,Pennyquick,Newton St. Loe,Bath,BA2 9JF,5,fhrs_5_en-gb,2014/03/25,5,5,5,"(51.382018, -2.409224)",51.382018,-2.409224,false,9,68,22,1,28
1049516,18/00128/MIXED,Peking Chef,Takeaway/sandwich shop,7844,Peking Chef Take Away,84 St Kilda's Road,Oldfield Park,Bath,BA2 3QJ,3,fhrs_3_en-gb,2019/05/24,10,10,10,"(51.37595, -2.379386)",51.37595,-2.379386,false,31,349,14,1,63
205732,15775/9016/2/000,Orchard House,Hotel/bed & breakfast/guest house,7842,Bristol Road,Chew Stoke,,,BS40 8UB,5,fhrs_5_en-gb,2015/07/27,5,0,5,"(51.354674, -2.631757)",51.354674,-2.631757,false,6,82,21,1,31
1052188,18/00141/MIXED,Subway,Restaurant/Cafe/Canteen,1,36 Moorland Road,Oldfield Park,Bath,,BA2 3PN,5,fhrs_5_en-gb,2018/06/06,0,5,0,"(51.3771815, -2.3785171)",51.3771815,-2.3785171,false,31,347,14,1,63
579119,13/00135/MIXED,The Herd Restaurant,Restaurant/Cafe/Canteen,1,The Herd,12 Argyle Street,Bathwick,Bath,BA2 4BQ,5,fhrs_5_en-gb,2019/02/04,5,5,5,"(51.383214, -2.357059)",51.383214,-2.357059,false,35,11,7,1,20
204164,07560/4200/2/000,Riverview Cafe,Restaurant/Cafe/Canteen,1,Buro Happold  Camden Mill,230 Lower Bristol Road,Westmoreland,Bath,BA2 3DQ,5,fhrs_5_en-gb,2018/08/06,5,5,5,"(51.377883, -2.362549)",51.377883,-2.362549,false,33,561,12,1,109
204158,00250/0000/2/000,Searcy's At The Assembly Rooms,Restaurant/Cafe/Canteen,1,Assembly Rooms,Bennett Street,City Centre,Bath,BA1 2QH,5,fhrs_5_en-gb,2017/06/19,5,5,0,"(51.386237, -2.362428)",51.386237,-2.362428,false,35,25,7,1,22
1006253,17/00291/MIXED,St Mary's CofE Primary School,School/college/university,7845,St Mary's C Of E Vc Primary School,Lansdown View,Timsbury,Bath,BA2 0JR,5,fhrs_5_en-gb,2018/02/05,0,5,0,"(51.329083, -2.471703)",51.329083,-2.471703,false,14,457,16,1,88
204205,01750/0032/0/000,Brocks,Hotel/bed & breakfast/guest house,7842,Brocks Guest House,32 Brock Street,City Centre,Bath,BA1 2LN,5,fhrs_5_en-gb,2015/10/08,5,5,5,"(51.386318, -2.365332)",51.386318,-2.365332,false,35,23,7,1,22
642869,13/00201/MIXED,Green Shoots Pre-School,Caring Premises,5,Green Shoots Pre School,Beechen Cliff Methodist Church,Shakespeare Avenue,Bear Flat,BA2 4RF,5,fhrs_5_en-gb,2019/03/08,5,5,5,"(51.373371, -2.364754)",51.373371,-2.364754,false,18,265,17,1,3
1020985,17/00357/MIXED,Nourish,Restaurant/Cafe/Canteen,1,1 Beaufort West,Lambridge,Bath,,BA1 6QB,3,fhrs_3_en-gb,2019/01/22,10,10,10,"(51.394647, -2.346454)",51.394647,-2.346454,false,23,230,4,1,58
204002,15677/9177/2/000,Chew Valley Rugby Football Club,Other catering premises,7841,Chew Valley Rugby Club,Chew Lane,Chew Stoke,Bristol,BS40 8UE,3,fhrs_3_en-gb,2013/08/12,10,5,10,"(51.356198, -2.629192)",51.356198,-2.629192,false,6,83,21,1,31
1029593,18/00029/FOOD,"Moons Macaroons, Cakes And Bakes",Other catering premises,7841,Walpole House,Charlcombe Lane,Lansdown,Bath,BA1 5TP,0,fhrs_exempt_en-gb,,,,,"(51.398937225342, -2.3663809299469)",51.398937225342,-2.3663809299469,false,21,234,7,1,1
914626,16/00067/FOOD,Chew Magna Old School Room Charity,Restaurant/Cafe/Canteen,1,The Old School Room,7 South Parade,Chew Magna,Bristol,BS40 8SH,0,fhrs_exempt_en-gb,,,,,"(51.365983, -2.610136)",51.365983,-2.610136,false,6,81,21,1,31
914689,16/00203/MIXED,The New Inn,Pub/bar/nightclub,7843,New Inn,23 - 24 Monmouth Place,City Centre,Bath,BA1 2AY,5,fhrs_5_en-gb,2019/06/14,5,5,5,"(51.382899, -2.365807)",51.382899,-2.365807,false,34,212,9,1,115
1030666,18/00041/MIXED,Stanton Court Nursing Home,Caring Premises,5,Stanton Court,Bromley Road,Stanton Drew,Bristol,BS39 4ER,4,fhrs_4_en-gb,2019/02/27,5,10,5,"(51.367206, -2.580116)",51.367206,-2.580116,false,5,101,20,1,34
1035476,18/00057/MIXED,Claverton Rooms,Restaurant/Cafe/Canteen,1,University Of Bath Campus,Claverton Down,Bath,Bath And North East Somerset,BA2 7BT,5,fhrs_5_en-gb,2018/02/23,5,5,5,"(51.38045, -2.330685)",51.38045,-2.330685,false,22,580,12,1,29
681669,14/00192/MIXED,Coffee Relax Ltd,Retailers - other,4613,Bath Magistrates Court,North Parade Road,Bathwick,Bath,BA1 5AF,0,fhrs_exempt_en-gb,,,,,"(51.380822, -2.354296)",51.380822,-2.354296,false,33,564,12,1,111
1077970,18/00276/MIXED,Aunty Noad's,Mobile caterer,7846,Pitch 55 James Street West,Street Trading,,,,4,fhrs_4_en-gb,2018/10/09,10,5,5,"(50.846181142549, -1.1263592844366)",50.846181142549,-1.1263592844366,false,,,,,
205623,15612/0117/0/000,Jones Day And Night/Writhlington Stores,Retailers - other,4613,Writhlington Post Office,117 Frome Road,Radstock,,BA3 3LN,4,fhrs_4_en-gb,2019/01/17,5,10,5,"(51.288977, -2.430193)",51.288977,-2.430193,false,12,416,24,1,78
244519,11/00258/MIXED,The Pig And Fiddle,Pub/bar/nightclub,7843,The Pig & Fiddle,2 Saracen Street,City Centre,Bath,BA1 5BR,5,fhrs_5_en-gb,2017/11/03,5,5,5,"(51.384635, -2.360001)",51.384635,-2.360001,false,35,11,7,1,20
204851,15628/0004/2/000,Midsomer Norton United Social Club,Other catering premises,7841,4 North Road,Midsomer Norton,Radstock,Bath And North East Somerset,BA3 2QD,5,fhrs_5_en-gb,2018/01/12,5,5,5,"(51.289159, -2.480414)",51.289159,-2.480414,false,11,283,25,1,11
203956,06970/0016/0/000,Larkhall Liberal Club,Pub/bar/nightclub,7843,Larkhall Liberal Club,16 Lambridge Place,Lambridge,Bath,BA1 6RU,5,fhrs_5_en-gb,2015/06/24,5,5,5,"(51.396848, -2.344315)",51.396848,-2.344315,false,23,214,4,1,58
892266,16/00098/MIXED,Castello,Restaurant/Cafe/Canteen,1,5 The Street,Radstock,,,BA3 3PZ,5,fhrs_5_en-gb,2019/06/05,,,,"(51.291995, -2.447803)",51.291995,-2.447803,false,12,413,24,1,79
579118,13/00127/MIXED,Keynsham Food Bank,Distributors/Transporters,7,Broadlands School,St Francis Road,Keynsham,Bristol,BS31 2DY,0,fhrs_exempt_en-gb,,,,,"(51.417017, -2.509349)",51.417017,-2.509349,false,24,161,1,1,48
1157778,19/00165/MIXED,St. Keyna Primary School,School/college/university,7845,St Keyna Primary School,Monmouth Road,Keynsham,,BS31 2JP,5,fhrs_5_en-gb,2019/07/09,0,0,0,"(51.411094665527, -2.5103468894959)",51.411094665527,-2.5103468894959,false,24,165,1,1,48
1015512,17/00333/MIXED,The Diner,Restaurant/Cafe/Canteen,1,Bath Sports And Leisure Centre,North Parade Road,Bathwick,Bath,BA2 4ET,5,fhrs_5_en-gb,2018/01/04,5,5,5,"(51.381523132324, -2.3543300628662)",51.381523132324,-2.3543300628662,false,35,3,7,1,21
974189,17/00179/MIXED,Mother Hen Catering Ltd,Other catering premises,7841,,,,,BA1 ,5,fhrs_5_en-gb,2017/05/03,5,5,5,,,,false,,,,,
205093,11/00127/MIXED,Paulton Children's Centre,Other catering premises,7841,Paulton Swimming Baths,Plumptre Close,Paulton,Bristol,BS39 7QY,5,fhrs_5_en-gb,2014/12/05,0,0,0,"(51.303329, -2.502179)",51.303329,-2.502179,false,13,368,23,1,67
205333,07450/0009/0/000,Terry And Son,Retailers - other,4613,Terrys Butcher,9 - 10 London Street,Walcot,Bath,BA1 5BU,5,fhrs_5_en-gb,2016/08/17,0,0,0,"(51.3889, -2.358842)",51.3889,-2.358842,false,35,15,7,1,22
860487,16/00061/MIXED,Thali,Restaurant/Cafe/Canteen,1,2 Lambridge Buildings,Larkhall,Bath,,BA1 6RS,2,fhrs_2_en-gb,2019/08/05,15,10,10,"(51.397069, -2.345395)",51.397069,-2.345395,false,23,224,4,1,58
205409,15770/0017/A/000,Chick-O-Land,Takeaway/sandwich shop,7844,Chick O'Land,17A High Street,Keynsham,Bristol,BS31 1DP,4,fhrs_4_en-gb,2018/07/10,5,5,10,"(51.416748046875, -2.4986190795898)",51.416748046875,-2.4986190795898,false,24,158,1,1,49
204945,11/00001/MIXED,Hawkins Of Bath,Hotel/bed & breakfast/guest house,7842,88 Newbridge Road,Newbridge,Bath,,BA1 3LA,0,fhrs_exempt_en-gb,,,,,"(51.384493, -2.393037)",51.384493,-2.393037,false,29,324,8,1,15
205234,00820/2900/2/000,Church Luncheon Club,Other catering premises,7841,Peasedown Methodist Church,Bath Road,Peasedown St. John,Bath,BA2 8DN,5,fhrs_5_en-gb,2015/09/21,0,5,5,"(51.315975, -2.426499)",51.315975,-2.426499,false,15,382,22,1,71
701421,14/00135/MIXED,Apple Tree Guest House,Hotel/bed & breakfast/guest house,7842,7 Pulteney Gardens,Widcombe,Bath,Bath And North East Somerset,BA2 4HG,5,fhrs_5_en-gb,2017/04/21,5,0,5,"(51.379862, -2.350524)",51.379862,-2.350524,false,33,562,12,1,111
204989,08/00131/MIXED,McColls,Retailers - other,4613,Martin Mccolls,39 - 41 Holmoak Road,Keynsham,Bristol,BS31 2RZ,4,fhrs_4_en-gb,2019/04/16,5,10,5,"(51.405686, -2.511667)",51.405686,-2.511667,false,37,175,2,1,51
807748,15/00239/FOOD,Tu Mangetout,Other catering premises,7841,,,,,BA1 ,4,fhrs_4_en-gb,2019/01/24,5,5,10,,,,false,,,,,
948535,17/00032/FOOD,Parsons Bakery,Retailers - other,4613,93 Bradford Road,Combe Down,Bath,,BA2 5BP,3,fhrs_3_en-gb,2018/10/17,10,10,5,"(51.359124, -2.360088)",51.359124,-2.360088,false,19,121,18,1,36
204235,15461/1000/2/000,Trout Tavern,Pub/bar/nightclub,7843,The Trout,46 Temple Street,Keynsham,,BS31 1EH,0,fhrs_exempt_en-gb,,,,,"(51.413299, -2.497762)",51.413299,-2.497762,false,37,182,2,1,52
204490,15498/1400/2/000,Keynsham Methodist Church,Other catering premises,7841,Charlton Road,Keynsham,Bristol,Bath And North East Somerset,BS31 2JA,5,fhrs_5_en-gb,2015/10/27,5,5,0,"(51.416112, -2.500179)",51.416112,-2.500179,false,24,159,1,1,49
205207,10/00060/MIXED,The Bath Bun,Restaurant/Cafe/Canteen,1,2 Abbey Green,City Centre,Bath,,BA1 1NW,5,fhrs_5_en-gb,2019/07/26,5,5,5,"(51.380332, -2.358732)",51.380332,-2.358732,false,35,12,7,1,20
204498,13960/0143/0/000,Devonshire House,Hotel/bed & breakfast/guest house,7842,Devonshire House B&b,143 Wellsway,Bath,Bath And North East Somerset,BA2 4RZ,0,fhrs_exempt_en-gb,,,,,"(51.366552, -2.366036)",51.366552,-2.366036,false,18,256,17,1,5
666584,13/00140/MIXED,Bath Christian Trust,Other catering premises,7841,1A Forum Buildings,St James's Parade,Bath,,BA1 1UG,5,fhrs_5_en-gb,2019/06/17,0,0,0,"(51.378645, -2.3605)",51.378645,-2.3605,false,35,14,7,1,20
1028009,18/00018/MIXED,Poplar House B&B,Hotel/bed & breakfast/guest house,7842,9 The Batch,Batheaston,Bath,Bath And North East Somerset,BA1 7DR,0,fhrs_exempt_en-gb,,,,,"(51.405895233154, -2.3210499286652)",51.405895233154,-2.3210499286652,false,1,32,10,1,23
359654,12/00051/MIXED,The Royal Oak,Pub/bar/nightclub,7843,Royal Oak Public House,Lower Bristol Road,Westmoreland,Bath,BA2 3BW,5,fhrs_5_en-gb,2015/08/18,0,0,0,"(51.381923, -2.381677)",51.381923,-2.381677,false,32,578,13,1,103
530427,12/00207/MIXED,Bill's Restaurant,Restaurant/Cafe/Canteen,1,Bills Restaurant,7 - 8 Cheap Street,City Centre,Bath,BA1 1NE,5,fhrs_5_en-gb,2019/01/14,0,5,0,"(51.381722, -2.359835)",51.381722,-2.359835,false,35,10,7,1,20
810454,15/00230/MIXED,Odd Down Sports Ground Cafe,Restaurant/Cafe/Canteen,1,Odd Down Sports Pavilion,Chelwood Drive,Odd Down,Bath,BA2 2PR,5,fhrs_5_en-gb,2018/10/03,0,0,0,"(51.359653, -2.375043)",51.359653,-2.375043,false,18,260,17,1,4
482008,12/00348/MIXED,The Bladud's Head,Pub/bar/nightclub,7843,1 - 3 Catsley Place,Larkhall,Bath,Bath And North East Somerset,BA1 6TA,3,fhrs_3_en-gb,2018/09/04,5,10,10,"(51.401632, -2.344078)",51.401632,-2.344078,false,23,217,4,1,58
205463,06010/0025/0/000,Millets,Retailers - other,4613,Blacks,25 - 26 High Street,City Centre,Bath,BA1 5AJ,0,fhrs_exempt_en-gb,,,,,"(51.3825922, -2.3595118)",51.3825922,-2.3595118,false,35,11,7,1,20
205134,08760/0003/0/000,Volunteer Riflemans Arms Public House,Pub/bar/nightclub,7843,Volunteer Rifleman's Arms,3 New Bond Street Place,City Centre,Bath,BA1 1BH,5,fhrs_5_en-gb,2018/05/01,0,0,0,"(51.382844, -2.360519)",51.382844,-2.360519,false,35,11,7,1,20
1136333,19/00116/MIXED,F.East @Walcot,Restaurant/Cafe/Canteen,1,F.east@walcot,66 Walcot Street,Bath,,BA1 5BD,5,fhrs_5_en-gb,2019/07/19,5,0,5,"(51.385875701904, -2.3594360351562)",51.385875701904,-2.3594360351562,false,35,11,7,1,20
204068,05410/0004/0/000,Snapdragons Nursery,Caring Premises,5,Snapdragons Nursery,4 Grosvenor Place,Lambridge,Bath,BA1 6AX,5,fhrs_5_en-gb,2019/02/15,0,0,0,"(51.394083, -2.345875)",51.394083,-2.345875,false,36,490,6,1,95
1056098,18/00176/MIXED,The Ship Inn,Pub/bar/nightclub,7843,The Ship,93 Temple Street,Keynsham,Bristol,BS31 1ER,1,fhrs_1_en-gb,2018/10/11,15,15,20,"(51.412062, -2.496828)",51.412062,-2.496828,false,37,182,2,1,52
833876,15/00182/MIXED,The Butchers Arms,Pub/bar/nightclub,7843,Butchers Arms,Timsbury Road,Farmborough,Bath,BA2 0AE,5,fhrs_5_en-gb,2019/07/17,5,5,5,"(51.343146, -2.482558)",51.343146,-2.482558,false,8,127,16,1,40
204411,07/00095/MIXED,Keynsham Bowling Club,Other catering premises,7841,Keynsham Bowls Club,Keynsham Memorial Park,Keynsham,Bath And North East Somerset,BS31 1DG,5,fhrs_5_en-gb,2018/01/11,5,5,5,"(51.415458, -2.497656)",51.415458,-2.497656,false,24,158,1,1,49
833875,15/00153/MIXED,Gather Cafe,Restaurant/Cafe/Canteen,1,280 High Street,Batheaston,Bath,,BA1 7RA,4,fhrs_4_en-gb,2019/04/18,5,5,10,"(51.405717854969, -2.3203834855107)",51.405717854969,-2.3203834855107,false,1,35,10,1,23
875552,15/00052/MIXED,Golden City,Takeaway/sandwich shop,7844,45 Holmoak Road,Keynsham,,,BS31 2RZ,5,fhrs_5_en-gb,2018/03/20,5,5,5,"(51.405686, -2.511667)",51.405686,-2.511667,false,37,175,2,1,51
785369,15/00162/FOOD,Carol's Cake House,Other catering premises,7841,,,,,BA3 ,5,fhrs_5_en-gb,2015/08/13,5,5,5,,,,false,,,,,
204062,10/00319/MIXED,Megabrek (Breakfast Club),School/college/university,7845,Camerton Church School,Camerton Hill,Camerton,Bath,BA2 0PS,0,fhrs_exempt_en-gb,,,,,"(51.31627, -2.455629)",51.31627,-2.455629,false,9,63,22,1,28
853066,16/00015/MIXED,Community At 67,Retailers - other,4613,Community Resource Centre,67 Queens Road,Keynsham,,BS31 2NW,5,fhrs_5_en-gb,2019/06/20,0,0,0,"(51.408668, -2.50812)",51.408668,-2.50812,false,37,187,2,1,53
205191,11870/0010/0/000,St James's Wine Vaults,Pub/bar/nightclub,7843,St James Wine Vaults,10 St James's Street,Lansdown,Bath,BA1 2TW,0,fhrs_exempt_en-gb,,,,,"(51.388415, -2.367619)",51.388415,-2.367619,false,34,199,9,1,115
914586,15/00009/MIXED,Farringtons Kitchen,Manufacturers/packers,7839,Farrington Farm Shop,Home Farm,Main Street,Farrington Gurney,BS39 6UB,5,fhrs_5_en-gb,2019/06/13,0,5,5,"(51.297851, -2.529256)",51.297851,-2.529256,false,3,133,23,1,43
205483,10/00388/MIXED,Lamb And Lion,Pub/bar/nightclub,7843,Lamb & Lion,15 Lower Borough Walls,City Centre,Bath,BA1 1QU,5,fhrs_5_en-gb,2019/08/13,5,5,0,"(51.379851, -2.359949)",51.379851,-2.359949,false,35,12,7,1,20
1077977,18/00285/MIXED,Fidel Rum Bar,Pub/bar/nightclub,7843,3 Trim Bridge,City Centre,Bath,Bath And North East Somerset,BA1 1HD,0,fhrs_exempt_en-gb,,,,,"(51.3825340271, -2.3617520332336)",51.3825340271,-2.3617520332336,false,35,11,7,1,20
862874,15/00236/MIXED,Bath Mill Lodge Retreat,Restaurant/Cafe/Canteen,1,Brook,Bath Mill Lodge And Retreat,Pennyquick,Newton St Loe,BA2 9JF,5,fhrs_5_en-gb,2018/06/18,5,5,5,"(51.3819645, -2.4091631)",51.3819645,-2.4091631,false,9,68,22,1,28
738674,15/00036/MIXED,Galleries Cafe,Restaurant/Cafe/Canteen,1,The Galleries Shop,Freshford Lane,Freshford,Bath,BA2 7UR,5,fhrs_5_en-gb,2017/03/03,5,5,5,"(51.3386, -2.311865)",51.3386,-2.311865,false,10,52,10,1,113
1071474,18/00247/MIXED,Twerton Infant School,School/college/university,7845,Poolemead Road,Whiteway,Bath,Bath And North East Somerset,BA2 1QR,3,fhrs_3_en-gb,2019/06/18,10,10,10,"(51.378767, -2.40283)",51.378767,-2.40283,false,28,470,11,1,90
205336,09570/1400/2/000,Beaumonds,Caring Premises,5,Padleigh Hill,Southdown,Bath,Bath And North East Somerset,BA2 9DW,5,fhrs_5_en-gb,2014/04/29,5,5,0,"(51.364672, -2.396644)",51.364672,-2.396644,false,27,448,15,1,84
204971,06410/1700/2/000,Dimensions UK Ltd,Caring Premises,5,Fountain House,Innox Lane,Swainswick,Bath,BA1 8DD,4,fhrs_4_en-gb,2014/03/20,5,10,5,"(51.410775, -2.347727)",51.410775,-2.347727,false,1,51,10,1,25
205239,10/00130/MIXED,Debenhams Retail Plc,Restaurant/Cafe/Canteen,1,Debenhams Plc,17 Southgate Place,Bath,,BA1 1AP,5,fhrs_5_en-gb,2018/05/21,5,5,0,"(51.37857, -2.358388)",51.37857,-2.358388,false,35,13,7,1,21
778120,15/00004/MIXED,The Pizza Bike (Mobile),Mobile caterer,7846,20 Woodhouse Road,Twerton,Bath,Bath And North East Somerset,BA2 1ST,4,fhrs_4_en-gb,2015/06/20,5,10,5,"(51.381856, -2.40129)",51.381856,-2.40129,false,28,468,11,1,91
720315,14/00352/MIXED,Avon Country Market Ltd,Retailers - other,4613,,,,,BS31,5,fhrs_5_en-gb,2014/11/27,5,5,0,,,,false,,,,,
802205,15/00113/MIXED,Coffee House 76,Restaurant/Cafe/Canteen,1,Ground Floor Shop,8 Bridge Street,City Centre,Bath,BA2 4AS,5,fhrs_5_en-gb,2015/09/08,0,0,0,"(51.382948, -2.35868)",51.382948,-2.35868,false,35,11,7,1,20
205525,15484/0009/0/000,Elm Tree Pharmacy,Retailers - other,4613,Elmtree Pharmacy,9 Elm Tree Avenue,Westfield,Radstock,BA3 3SX,0,fhrs_exempt_en-gb,,,,,"(51.286684, -2.465461)",51.286684,-2.465461,false,26,510,26,1,97
1008188,17/00295/FOOD,Bath Cake Company,Other catering premises,7841,76 Cranwells Park,Lower Weston,Bath,Bath And North East Somerset,BA1 2YE,0,fhrs_exempt_en-gb,,,,,"(51.391304016113, -2.3781049251556)",51.391304016113,-2.3781049251556,false,20,548,5,1,107
982683,17/00194/MIXED,Little Blossoms Nursery School,Caring Premises,5,St Barnabus Church Hall,Mount View,Southdown,Bath,BA2 1JX,5,fhrs_5_en-gb,2019/06/11,5,5,5,"(51.369553, -2.394245)",51.369553,-2.394245,false,27,442,15,1,83
204254,05/00023/FOOD,The John Rennie Restaurant Boat,Other catering premises,7841,Bath Narrow Boats Ltd,Sydney Wharf,Bathwick,Bath,BA2 4EL,5,fhrs_5_en-gb,2018/04/03,0,5,0,"(51.382813, -2.349741)",51.382813,-2.349741,false,22,74,12,1,30
204088,08/00257/MIXED,Magic Box Pre-School,Caring Premises,5,Village Hall,High Street,Wellow,Bath,BA2 8QQ,5,fhrs_5_en-gb,2014/09/17,5,5,5,"(51.323112, -2.374803)",51.323112,-2.374803,false,10,60,10,1,114
655897,14/00150/MIXED,Central Youth Cafe,Restaurant/Cafe/Canteen,1,Hay Hill Baptist Church,Fountain Buildings,City Centre,Bath,BA1 5DU,5,fhrs_5_en-gb,2014/03/03,5,5,5,"(51.385765, -2.360887)",51.385765,-2.360887,false,35,7,7,1,20
204006,15707/0000/2/000,Compton Dando Village Hall,Other catering premises,7841,Court Hill,Compton Dando,Bristol,Bath And North East Somerset,BS39 4JZ,0,fhrs_exempt_en-gb,,,,,"(51.378003, -2.511243)",51.378003,-2.511243,false,8,123,16,1,41
359665,12/00137/MIXED,Kings Kebabs,Mobile caterer,7846,Dry Arch,Warminster Road,Bathampton,Bath,BA2 6XH,3,fhrs_3_en-gb,2015/05/12,10,10,10,"(51.390865, -2.316834)",51.390865,-2.316834,false,1,28,10,1,27
875560,16/00118/MIXED,Seven Stars,Pub/bar/nightclub,7843,Seven Stars Inn,North Road,Timsbury,Bath,BA2 0JJ,5,fhrs_5_en-gb,2017/10/12,,,,"(51.327825, -2.473714)",51.327825,-2.473714,false,14,457,16,1,88
1012770,17/00328/FOOD,The Colombian Company Ltd,Other catering premises,7841,,,,,BA2 ,0,fhrs_exempt_en-gb,,,,,,,,false,,,,,
205547,05/00291/FOOD,W F Wells & Sons,Distributors/Transporters,7,Ludlows Farm,Bath Old Road,Radstock,Bath And North East Somerset,BA3 3JG,0,fhrs_exempt_en-gb,,,,,"(51.29919, -2.438019)",51.29919,-2.438019,false,12,406,24,1,76
204187,11/00088/MIXED,Sports Cafe,School/college/university,7845,Sports Training Village,University Of Bath Campus,Claverton Down,Bath,BA2 7BT,5,fhrs_5_en-gb,2019/05/09,5,5,5,"(51.38045, -2.330685)",51.38045,-2.330685,false,22,580,12,1,29
204978,11/00163/MIXED,Chew Valley Children's Centre,Other catering premises,7841,Chew Lane,Chew Magna,Bristol,,BS40 8QA,5,fhrs_5_en-gb,2015/09/23,5,0,5,"(51.360687, -2.618727)",51.360687,-2.618727,false,6,80,21,1,31
813343,15/00260/MIXED,Card Factory,Retailers - other,4613,65 High Street,Keynsham,,,BS31 1DS,0,fhrs_exempt_en-gb,,,,,"(51.415645599365, -2.4982330799103)",51.415645599365,-2.4982330799103,false,24,158,1,1,49
1098984,19/00019/MIXED,No 10 Caf,Restaurant/Cafe/Canteen,1,10 Fortescue Road,Radstock,Bath And North East Somerset,,BA3 3PJ,5,fhrs_5_en-gb,2019/04/30,5,5,5,"(51.2922713, -2.4473644)",51.2922713,-2.4473644,false,12,413,24,1,79
860484,16/00003/MIXED,Hondo Chinese Supermarket,Retailers - other,4613,8 - 9 St James's Parade,Bath,,,BA1 1UL,2,fhrs_2_en-gb,2018/10/03,,,,"(51.379326, -2.361123)",51.379326,-2.361123,false,35,14,7,1,20
803075,15/00199/MIXED,La Campagna,Restaurant/Cafe/Canteen,1,Winterfield Inn,Winterfield Road,Paulton,Bristol,BS39 7RJ,5,fhrs_5_en-gb,2019/01/09,5,5,5,"(51.300867, -2.495238)",51.300867,-2.495238,false,13,370,23,1,69
204321,06/00189/MIXED,Widcombe Infant School,School/college/university,7845,Widcombe Ce Infant School,Archway Street,Widcombe,Bath,BA2 4JG,5,fhrs_5_en-gb,2018/04/12,,,,"(51.377993, -2.353139)",51.377993,-2.353139,false,33,564,12,1,111
681672,14/00251/MIXED,Feilden Clegg Bradley Studios LLP,Restaurant/Cafe/Canteen,1,Fielden Clegg,Toll Bridge Road,Lower Swainswick,Bath,BA1 7DE,4,fhrs_4_en-gb,2018/05/01,5,5,10,"(51.402122, -2.326831)",51.402122,-2.326831,false,23,216,4,1,58
205094,11/00131/FOOD,Siobhan The Bath Cook/Canape Couture,Other catering premises,7841,2 Bloomfield Crescent,Bloomfield,Bath,Bath And North East Somerset,BA2 2BE,0,fhrs_exempt_en-gb,,,,,"(51.364584, -2.376793)",51.364584,-2.376793,false,30,341,19,1,62
1154710,19/00153/MIXED,Giraffe,Restaurant/Cafe/Canteen,1,8 Dorchester Street,Bath,,,BA1 1SS,5,fhrs_5_en-gb,2018/09/25,5,5,5,"(51.378238, -2.358356)",51.378238,-2.358356,false,35,13,7,1,21
997547,17/00242/MIXED,Hidden Valley Bushcraft,Other catering premises,7841,,,,,BS39,5,fhrs_5_en-gb,2017/12/01,5,5,5,,,,false,,,,,
204526,06210/0027/0/000,Bathampton Pharmacy,Retailers - other,4613,27 Holcombe Lane,Bathampton,Bath,Bath And North East Somerset,BA2 6UL,0,fhrs_exempt_en-gb,,,,,"(51.393286, -2.322643)",51.393286,-2.322643,false,1,27,10,1,27
204523,10/00360/MIXED,Out To Lunch Event Catering,Other catering premises,7841,,,,,BA2 ,5,fhrs_5_en-gb,2017/02/14,5,5,5,,,,false,,,,,
205521,12480/0003/0/000,Ruposhi,Takeaway/sandwich shop,7844,Ruposhi Indian Takeaway,3 Sussex Place,Widcombe,Bath,BA2 4LA,3,fhrs_3_en-gb,2017/05/31,5,10,10,"(51.376624, -2.353803)",51.376624,-2.353803,false,33,572,12,1,111
205150,11/00082/MIXED,Co-Operative Service Station,Retailers - other,4613,Co-operative Service Station,Bath Road,Keynsham,,BS31 1TL,5,fhrs_5_en-gb,2014/04/28,5,5,5,"(51.412038, -2.479012)",51.412038,-2.479012,false,16,154,3,1,47
802207,15/00169/FOOD,Helen's Cream Teas,Other catering premises,7841,,,,,BA2 ,5,fhrs_5_en-gb,2015/09/11,5,5,5,,,,false,,,,,
1109393,19/00066/MIXED,Peasedown St John Primary School,School/college/university,7845,Bath Road,Peasedown St. John,Bath,Bath And North East Somerset,BA2 8DH,5,fhrs_5_en-gb,2019/06/04,0,5,5,"(51.315041, -2.428629)",51.315041,-2.428629,false,15,378,22,1,73
941865,17/00024/MIXED,D & M Catering,Mobile caterer,7846,16 Ashleigh Close,Paulton,Bristol,Bath And North East Somerset,BS39 7QD,5,fhrs_5_en-gb,2018/02/26,5,5,5,"(51.306465, -2.500577)",51.306465,-2.500577,false,13,366,23,1,69
738670,14/00301/MIXED,The Music Box Shop,Restaurant/Cafe/Canteen,1,36 Bristol Road,Whitchurch,Bristol,Bath And North East Somerset,BS14 0PT,0,fhrs_exempt_en-gb,,,,,"(51.407451, -2.558312)",51.407451,-2.558312,false,7,401,20,1,75
1106779,19/00045/FOOD,Longvernal Primary School,School/college/university,7845,Longvernal,Midsomer Norton,Radstock,Bath And North East Somerset,BA3 2LP,5,fhrs_5_en-gb,2019/05/14,5,0,5,"(51.161659240723, -3.0411350727081)",51.161659240723,-3.0411350727081,false,,,,,
1023656,17/00361/MIXED,Just Chicken,Restaurant/Cafe/Canteen,1,51 Moorland Road,Oldfield Park,Bath,,BA2 3PJ,4,fhrs_4_en-gb,2018/01/01,5,5,10,"(51.3766073, -2.378301)",51.3766073,-2.378301,false,31,347,14,1,63
570167,13/00017/MIXED,Subway,Takeaway/sandwich shop,7844,2 Rosewell Court,City Centre,Bath,Bath And North East Somerset,BA1 2AG,5,fhrs_5_en-gb,2017/08/23,5,5,5,"(51.381284, -2.364731)",51.381284,-2.364731,false,34,194,9,1,55
205603,12640/0008/0/000,Bog Island News,Retailers - other,4613,8 Terrace Walk,City Centre,Bath,,BA1 1LN,5,fhrs_5_en-gb,2014/04/16,5,5,5,"(51.381152, -2.357905)",51.381152,-2.357905,false,35,12,7,1,20
205156,06/00183/MIXED,Costa Coffee,Restaurant/Cafe/Canteen,1,Costa Coffee,44 Stall Street,City Centre,Bath,BA1 1QH,5,fhrs_5_en-gb,2019/07/24,0,5,0,"(51.381252, -2.360578)",51.381252,-2.360578,false,35,10,7,1,20
205317,11920/0081/0/000,Bridge Care Limited,Caring Premises,5,Bridgemead House Residential Home,81 St John's Road,Bathwick,Bath,BA2 6PZ,5,fhrs_5_en-gb,2018/03/28,0,0,0,"(51.387613, -2.356533)",51.387613,-2.356533,false,35,16,7,1,20
204812,08/00083/MIXED,McColls,Retailers - other,4613,Martin McColls,7 Lambridge Buildings,Larkhall,Bath,BA1 6RS,5,fhrs_5_en-gb,2013/04/23,0,0,0,"(51.397069, -2.345394)",51.397069,-2.345394,false,23,224,4,1,58
204010,15181/0008/0/000,Mr D's Takeaway,Takeaway/sandwich shop,7844,8 St George's Place,Kingsmead,Bath,Bath And North East Somerset,BA1 3AA,4,fhrs_4_en-gb,2019/08/29,5,10,5,"(51.383667, -2.370383)",51.383667,-2.370383,false,34,209,9,1,115
520712,13/00013/MIXED,The Old Priory,Hotel/bed & breakfast/guest house,7842,The Moody Goose Restaurant  The Pri,19 Church Square,Midsomer Norton,Radstock,BA3 2HX,5,fhrs_5_en-gb,2016/03/15,0,0,5,"(51.286056, -2.485085)",51.286056,-2.485085,false,11,291,25,1,11
204544,01500/0106/0/000,Wentworth House Hotel,Hotel/bed & breakfast/guest house,7842,106 Bloomfield Road,Bloomfield,Bath,Bath And North East Somerset,BA2 2AP,2,fhrs_2_en-gb,2017/10/04,10,15,10,"(51.370602, -2.367533)",51.370602,-2.367533,false,18,254,17,1,3
1005543,17/00287/MIXED,Walcot House,Other catering premises,7841,90B Walcot Street,Bath,,,BA1 5BG,5,fhrs_5_en-gb,2019/02/21,5,5,5,"(51.387577056885, -2.358745098114)",51.387577056885,-2.358745098114,false,35,1,7,1,20
735960,14/00353/MIXED,Greggs,Retailers - other,4613,10 Southgate Street,Bath,,,BA1 1AQ,5,fhrs_5_en-gb,2019/07/17,0,0,0,"(51.378855, -2.359223)",51.378855,-2.359223,false,35,13,7,1,21
520694,12/00301/MIXED,Nando's,Restaurant/Cafe/Canteen,1,5 Brunel Square,Bath,,,BA1 1SX,5,fhrs_5_en-gb,2018/03/02,5,5,0,"(51.377442, -2.356885)",51.377442,-2.356885,false,35,13,7,1,21
690488,14/00178/MIXED,The Home Brewing Centre,Retailers - other,4613,Home Brewing Centre  The Courtyard,High Street,Keynsham,Bristol,BS31 1DS,0,fhrs_exempt_en-gb,,,,,"(51.415608, -2.498218)",51.415608,-2.498218,false,24,158,1,1,49
204114,12030/0001/0/000,St Michael's Day Centre,Caring Premises,5,1 - 2 St Michael's Place,City Centre,Bath,Bath And North East Somerset,BA1 1SG,5,fhrs_5_en-gb,2018/09/26,5,5,5,"(51.381122, -2.361856)",51.381122,-2.361856,false,35,10,7,1,20
204787,09/00207/MIXED,Belushi's,Pub/bar/nightclub,7843,Belushi Bar  St Christopher's Inn,9 Green Street,City Centre,Bath,BA1 2JY,5,fhrs_5_en-gb,2019/03/25,5,5,5,"(51.383464, -2.360567)",51.383464,-2.360567,false,35,11,7,1,20
204355,15524/9057/2/000,Mrs Noble,Other catering premises,7841,Shaston,Rosemary Lane,Freshford,Bath,BA2 7UD,0,fhrs_exempt_en-gb,,,,,"(51.334736, -2.311135)",51.334736,-2.311135,false,10,52,10,1,113
850190,16/00054/MIXED,Hai Na Oriental Supermarket,Retailers - other,4613,18 Union Street,City Centre,Bath,Bath And North East Somerset,BA1 1RS,5,fhrs_5_en-gb,2016/02/12,5,5,5,"(51.382017, -2.360282)",51.382017,-2.360282,false,35,10,7,1,20
1002177,17/00273/MIXED,The Roseate Villa Bath,Hotel/bed & breakfast/guest house,7842,Roseate Villa,Henrietta Road,Bathwick,Bath,BA2 6LX,5,fhrs_5_en-gb,2019/05/20,5,5,5,"(51.386859893799, -2.3555929660797)",51.386859893799,-2.3555929660797,false,35,19,7,1,21
205717,06830/0037/0/000,Seafoods Fish Bar,Takeaway/sandwich shop,7844,Seafoods Fish Bar,38 Kingsmead Street,City Centre,Bath,BA1 2AA,4,fhrs_4_en-gb,2017/08/22,5,10,5,"(51.381477355957, -2.363655090332)",51.381477355957,-2.363655090332,false,34,194,9,1,55
204707,15191/0009/0/000,Coombend Fish Bar,Takeaway/sandwich shop,7844,9 Coombend,Radstock,Bath And North East Somerset,,BA3 3AW,3,fhrs_3_en-gb,2018/07/04,5,10,10,"(51.293772, -2.448738)",51.293772,-2.448738,false,12,413,24,1,79
804867,15/00179/MIXED,Zazu's Kitchen Ltd At The Bear Hotel,Pub/bar/nightclub,7843,The Bear,8 - 10 Wellsway,Bath,Bath And North East Somerset,BA2 3AQ,5,fhrs_5_en-gb,2017/08/16,5,5,5,"(51.374066, -2.366814)",51.374066,-2.366814,false,18,264,17,1,3
205341,05/00121/FOOD,Staff Restaurant At Marks & Spencer,Restaurant/Cafe/Canteen,1,Marks And Spencer,16 - 18 Stall Street,City Centre,Bath,BA1 1QB,5,fhrs_5_en-gb,2018/05/01,0,5,0,"(51.380042, -2.359261)",51.380042,-2.359261,false,35,12,7,1,20
1037508,18/00064/MIXED,The Egg Cafe,Restaurant/Cafe/Canteen,1,Theatre Royal,Sawclose,City Centre,Bath,BA1 1ET,5,fhrs_5_en-gb,2019/08/13,5,5,5,"(51.382144, -2.362971)",51.382144,-2.362971,false,34,193,9,1,55
204483,10/00115/MIXED,Little Willows Day Nursery,Caring Premises,5,Powlett Road,Bathwick,Bath,,BA2 6QH,5,fhrs_5_en-gb,2018/03/06,0,5,5,"(51.388378, -2.353334)",51.388378,-2.353334,false,36,499,6,1,96
205380,14190/3000/2/000,Oakfield Care Home,Caring Premises,5,Oakfield,Weston Park,Upper Weston,Bath,BA1 4AS,5,fhrs_5_en-gb,2019/04/25,0,5,0,"(51.393447, -2.385381)",51.393447,-2.385381,false,20,547,5,1,107
750006,15/00030/MIXED,The Summer House,Hotel/bed & breakfast/guest house,7842,Old Stables,Stanton Road,Pensford,Bristol,BS39 4JJ,5,fhrs_5_en-gb,2015/04/09,0,0,0,"(51.377292, -2.558433)",51.377292,-2.558433,false,7,399,20,1,74
688889,14/00263/MIXED,Smak Polski W Bath,Retailers - other,4613,68 Lower Bristol Road,Westmoreland,Bath,Bath And North East Somerset,BA2 3BE,5,fhrs_5_en-gb,2016/08/18,5,5,5,"(51.379111, -2.369585)",51.379111,-2.369585,false,33,561,12,1,109
785368,15/00159/FOOD,Cake Pops,Other catering premises,7841,,,,,BA1 ,5,fhrs_5_en-gb,2015/08/14,5,5,5,,,,false,,,,,
205730,15703/0000/2/000,Prattens Westfield Amateur Sports Club,Other catering premises,7841,Prattens Sports And Social Club,Charlton Lane,Westfield,Midsomer Norton,BA3 4BD,4,fhrs_4_en-gb,2013/07/09,5,10,5,"(51.276479, -2.472024)",51.276479,-2.472024,false,,,,,
204234,15461/0014/0/000,Iceland Frozen Foods Plc,Retailers - supermarkets/hypermarkets,7840,Iceland Foods Plc,14 - 18 Temple Street,Keynsham,Bristol,BS31 1EG,5,fhrs_5_en-gb,2014/03/24,5,5,0,"(51.414150238037, -2.4981880187988)",51.414150238037,-2.4981880187988,false,24,158,1,1,49
1026892,18/00009/MIXED,Radish,Caring Premises,5,Lambrook Court,Gloucester Road,Lower Swainswick,Bath,BA1 8AZ,5,fhrs_5_en-gb,2018/03/28,0,0,0,,,,false,,,,,
905646,15/00283/MIXED,Taka Taka,Takeaway/sandwich shop,7844,34 Broad Street,City Centre,Bath,,BA1 5LP,2,fhrs_2_en-gb,2018/02/26,10,15,10,"(51.38414, -2.359896)",51.38414,-2.359896,false,35,7,7,1,20
204647,08/00175/MIXED,Ellsworth House,Caring Premises,5,Ellsworth,Fosseway,Westfield,Midsomer Norton,BA3 4AU,5,fhrs_5_en-gb,2014/10/15,5,5,5,"(51.278597, -2.472949)",51.278597,-2.472949,false,26,520,26,1,100
205119,10/00075/MIXED,The Co-Operative,Retailers - supermarkets/hypermarkets,7840,The Co-operative,4 - 5 Hill Court,Paulton,Bristol,BS39 7QG,4,fhrs_4_en-gb,2018/03/29,5,10,5,"(51.306713, -2.50157)",51.306713,-2.50157,false,13,363,23,1,68
204832,15288/0006/0/000,Bath Spa University Refectory,School/college/university,7845,Refectory,Moreton,Bath Spa University Campus,Newton St Loe,BA2 9BN,5,fhrs_5_en-gb,2017/05/10,5,5,5,"(51.375942230225, -2.4379470348358)",51.375942230225,-2.4379470348358,false,9,68,22,1,28
948534,17/00030/MIXED,Parsons Bakery,Retailers - other,4613,16 Brookside House,High Street,Upper Weston,Bath,BA1 4BY,5,fhrs_5_en-gb,2019/05/09,5,5,0,"(51.396533, -2.392708)",51.396533,-2.392708,false,20,549,5,1,108
204923,06/00073/FOOD,The Bertinet Kitchen,Other catering premises,7841,12 St Andrew's Terrace,City Centre,Bath,Bath And North East Somerset,BA1 2QR,5,fhrs_5_en-gb,2014/04/14,0,0,0,"(51.385607, -2.362524)",51.385607,-2.362524,false,35,4,7,1,22
741430,15/00029/MIXED,Railway Inn,Pub/bar/nightclub,7843,Station Road,Clutton,Bristol,Bath And North East Somerset,BS39 5PD,5,fhrs_5_en-gb,2018/06/21,5,5,5,"(51.330465, -2.538846)",51.330465,-2.538846,false,5,97,20,1,34
204974,10/00008/MIXED,Sainsbury's,Retailers - supermarkets/hypermarkets,7840,Sainsbury's Local,54 - 56 Moorland Road,Oldfield Park,Bath,BA2 3PJ,5,fhrs_5_en-gb,2018/06/19,5,5,0,"(51.376797, -2.378718)",51.376797,-2.378718,false,31,347,14,1,63
204687,11/00101/MIXED,Combe Down CE VC Primary School,School/college/university,7845,Combe Down Ce Vc Primary School,Church Road,Combe Down,Bath,BA2 5JQ,5,fhrs_5_en-gb,2018/03/12,0,5,5,"(51.359341, -2.34817)",51.359341,-2.34817,false,19,117,18,1,38
1052190,18/00150/FOOD,Busy Bee Travel Packs,Other catering premises,7841,,,,,BA2 ,0,fhrs_exempt_en-gb,,,,,,,,false,,,,,
204625,06530/0002/0/000,Firehouse Rotisserie,Restaurant/Cafe/Canteen,1,Firehouse Rotisserie,2 John Street,City Centre,Bath,BA1 2JL,5,fhrs_5_en-gb,2018/02/07,5,5,5,"(51.383441, -2.362075)",51.383441,-2.362075,false,35,11,7,1,20
914723,16/00249/MIXED,The Radstock Hotel,Hotel/bed & breakfast/guest house,7842,Radstock Hotel,Market Place,Radstock,Bath And North East Somerset,BA3 3AD,5,fhrs_5_en-gb,2018/10/01,,,,"(51.293431, -2.448476)",51.293431,-2.448476,false,12,413,24,1,79
204133,11080/1001/2/000,Thai Balcony,Restaurant/Cafe/Canteen,1,1 Seven Dials,Sawclose,City Centre,Bath,BA1 1EN,5,fhrs_5_en-gb,2018/02/26,5,5,5,"(51.381667, -2.362938)",51.381667,-2.362938,false,34,194,9,1,55
914658,16/00149/MIXED,Bridge House Bath,Hotel/bed & breakfast/guest house,7842,168 Newbridge Road,Newbridge,Bath,,BA1 3LE,4,fhrs_4_en-gb,2017/03/23,10,5,5,"(51.386947, -2.398289)",51.386947,-2.398289,false,29,317,8,1,17
205578,07120/8800/2/000,Lansdown Grove Hotel,Hotel/bed & breakfast/guest house,7842,Lansdown Road,Lansdown,Bath,Bath And North East Somerset,BA1 5EH,5,fhrs_5_en-gb,2018/07/16,5,5,0,"(51.390799, -2.363944)",51.390799,-2.363944,false,21,241,7,1,2
1092987,18/00358/MIXED,Good Egg,Mobile caterer,7846,Green Park Station,Green Park Road,City Centre,Bath,BA1 1JB,4,fhrs_4_en-gb,2019/04/25,5,5,10,"(51.381538, -2.366917)",51.381538,-2.366917,false,34,195,9,1,55
205117,10/00053/MIXED,Cafe @ The Centre,Restaurant/Cafe/Canteen,1,Manvers Street,Bath,,,BA1 1JW,5,fhrs_5_en-gb,2017/11/14,5,5,5,"(51.37889, -2.356594)",51.37889,-2.356594,false,35,13,7,1,21
204372,10420/0018/0/000,Roman City Guest House,Hotel/bed & breakfast/guest house,7842,18 Raby Place,Bathwick,Bath,,BA2 4EH,0,fhrs_exempt_en-gb,,,,,"(51.383648, -2.350294)",51.383648,-2.350294,false,22,74,12,1,30
359652,12/00032/MIXED,Society Cafe,Restaurant/Cafe/Canteen,1,5 Kingsmead Square,City Centre,Bath,,BA1 2AB,5,fhrs_5_en-gb,2015/07/27,5,5,5,"(51.381108, -2.363393)",51.381108,-2.363393,false,34,196,9,1,55
741429,14/00329/MIXED,Snack Bar,Takeaway/sandwich shop,7844,37 Monmouth Street,City Centre,Bath,,BA1 1EN,1,fhrs_1_en-gb,2018/12/05,15,15,20,"(51.38182, -2.362968)",51.38182,-2.362968,false,34,194,9,1,55
204702,15759/9123/2/000,Hunters Rest,Pub/bar/nightclub,7843,The Hunters Rest Inn,King Lane,Clutton,Bristol,BS39 5QL,5,fhrs_5_en-gb,2019/02/20,5,5,5,"(51.338352, -2.528761)",51.338352,-2.528761,false,5,95,20,1,34
1059256,18/00190/FOOD,Inspired Market,Other catering premises,7841,Shepherds Mead,Old School Hill,South Stoke,Bath,BA2 7EB,0,fhrs_exempt_en-gb,,,,,"(51.348934173584, -2.3635840415955)",51.348934173584,-2.3635840415955,false,10,59,10,1,113
481988,09/00204/MIXED,Best One,Retailers - other,4613,106 Mount Road,Southdown,Bath,,BA2 1LN,5,fhrs_5_en-gb,2014/11/06,5,5,5,"(51.371669, -2.396245)",51.371669,-2.396245,false,27,436,15,1,83
205223,09020/1200/2/000,The Hadley Arms Public House,Pub/bar/nightclub,7843,Hadley Arms,North Road,Combe Down,Bath,BA2 5DH,3,fhrs_3_en-gb,2019/05/01,,,,"(51.362181, -2.345706)",51.362181,-2.345706,false,19,109,18,1,37
1080650,18/00296/MIXED,Cafe @ The Hub,Restaurant/Cafe/Canteen,1,The Hub,Mulberry Way,Combe Down,Bath,BA2 5BU,5,fhrs_5_en-gb,2018/11/28,5,0,5,,,,false,,,,,
1056099,18/00177/MIXED,Picnic In The Park,Restaurant/Cafe/Canteen,1,16 Lark Place,Upper Bristol Road,Lower Weston,Bath,BA1 3BA,5,fhrs_5_en-gb,2018/11/28,5,5,5,"(51.385644, -2.379265)",51.385644,-2.379265,false,34,206,9,1,54
205284,06/00156/MIXED,Topline Catering Limited,Other catering premises,7841,Topline Catering  Unit 14,Old Mills Industrial Estate,Paulton,Bristol,BS39 7SU,5,fhrs_5_en-gb,2018/12/06,5,5,5,"(51.29183, -2.501881)",51.29183,-2.501881,false,13,373,23,1,67
205550,07430/0219/0/000,Jones Convenience Store,Retailers - other,4613,L F Jones,219 London Road East,Batheaston,Bath,BA1 7NB,5,fhrs_5_en-gb,2019/08/13,5,5,5,"(51.405627, -2.31777)",51.405627,-2.31777,false,1,35,10,1,23
940426,17/00011/MIXED,The Barn Cafe,Restaurant/Cafe/Canteen,1,The Barn,Broadlands Fruit Farm,Box Road,Bathford,,3,fhrs_3_en-gb,2019/01/22,5,10,10,"(51.4032126222, -2.3074625566458)",51.4032126222,-2.3074625566458,false,1,41,10,1,26
944367,17/00034/MIXED,The Woodford,Restaurant/Cafe/Canteen,1,Woodford Lodge,Stoke Hill,Chew Stoke,Bristol,BS40 8XH,5,fhrs_5_en-gb,2017/04/12,5,0,5,"(51.343606, -2.624986)",51.343606,-2.624986,false,6,84,21,1,31
926447,16/00292/FOOD,Bonney's Chocolate Box,Other catering premises,7841,53 Purnell Way,Paulton,Bristol,,BS39 7AB,0,fhrs_exempt_en-gb,,,,,"(51.308732, -2.504519)",51.308732,-2.504519,false,13,363,23,1,68
462985,12/00296/MIXED,Brasserie Blanc,Restaurant/Cafe/Canteen,1,Francis Hotel,6 - 11 Queen Square,City Centre,Bath,BA1 2HH,5,fhrs_5_en-gb,2019/06/28,5,5,5,"(51.382943, -2.363322)",51.382943,-2.363322,false,34,193,9,1,55
204686,11/00098/MIXED,Cote Brasserie,Restaurant/Cafe/Canteen,1,27 Milsom Place,City Centre,Bath,,BA1 1BZ,5,fhrs_5_en-gb,2018/02/16,0,5,5,"(51.38385, -2.360728)",51.38385,-2.360728,false,35,11,7,1,20
205746,15518/1000/3/C01,Acorn Pre-School,Caring Premises,5,Paulton Village Hall,Farrington Road,Paulton,Bristol,BS39 7LW,0,fhrs_exempt_en-gb,,,,,"(51.306775, -2.505932)",51.306775,-2.505932,false,13,363,23,1,68
205242,05/00081/FOOD,King William,Pub/bar/nightclub,7843,The King William Public House,36 Thomas Street,Walcot,Bath,BA1 5NN,5,fhrs_5_en-gb,2019/05/15,,,,"(51.390967, -2.356516)",51.390967,-2.356516,false,36,485,6,1,96
1150201,19/00139/MIXED,Swoon Gelato,Restaurant/Cafe/Canteen,1,19 Milsom Place,City Centre,Bath,Bath And North East Somerset,BA1 1BZ,4,fhrs_4_en-gb,2019/08/05,5,10,5,"(51.3837827, -2.3612456)",51.3837827,-2.3612456,false,35,11,7,1,20
204954,15456/9111/3/C01,3-2-4 Play Group,Caring Premises,5,Chandag Infants School,Chandag Road,Keynsham,,BS31 1PQ,5,fhrs_5_en-gb,2016/02/25,5,5,5,"(51.409393, -2.485843)",51.409393,-2.485843,false,16,145,3,1,47
205061,15770/0057/0/000,Oxfam,Retailers - other,4613,Oxfam,57 High Street,Keynsham,Bristol,BS31 1DS,0,fhrs_exempt_en-gb,,,,,"(51.415608, -2.498218)",51.415608,-2.498218,false,24,158,1,1,49
1040391,18/00079/MIXED,East Meets West,Restaurant/Cafe/Canteen,1,33 Southgate Street,Bath,,,BA1 1TP,4,fhrs_4_en-gb,2018/06/18,5,10,5,"(51.378161, -2.360065)",51.378161,-2.360065,false,35,12,7,1,20
205522,17286/1000/2/000,Timsbury Pharmacy,Retailers - other,4613,High Street,Timsbury,Bath,Bath And North East Somerset,BA2 0HT,0,fhrs_exempt_en-gb,,,,,"(51.326138, -2.47727)",51.326138,-2.47727,false,14,460,16,1,87
205184,15141/0480/0/000,Tiddlers Day Nursery Limited,Caring Premises,5,Tiddlers Day Nursery,480 Bath Road,Saltford,Bristol,BS31 3DJ,4,fhrs_4_en-gb,2019/01/09,5,5,10,"(51.4021, -2.459344)",51.4021,-2.459344,false,17,422,16,1,80
1109399,19/00074/MIXED,Doctor Gelato,Retailers - other,4613,3 Orange Grove,City Centre,Bath,,BA1 1LP,5,fhrs_5_en-gb,2019/07/04,5,5,5,"(51.3814105, -2.357807)",51.3814105,-2.357807,false,35,12,7,1,20
359643,11/00236/MIXED,Tasting Room (Bath) Ltd,Restaurant/Cafe/Canteen,1,The Kitchen,6 Green Street,City Centre,Bath,BA1 2JY,5,fhrs_5_en-gb,2016/11/08,5,5,5,"(51.383453369141, -2.3605670928955)",51.383453369141,-2.3605670928955,false,35,11,7,1,20
1026894,18/00011/FOOD,Hollymade Cakes,Other catering premises,7841,Westwood,Durcott Lane,Camerton,Bath,BA2 0QE,0,fhrs_exempt_en-gb,,,,,"(51.319469451904, -2.4631950855255)",51.319469451904,-2.4631950855255,false,9,62,22,1,28
205080,12220/0016/0/000,Marks & Spencer,Retailers - supermarkets/hypermarkets,7840,Marks And Spencer,16 - 18 Stall Street,City Centre,Bath,BA1 1QB,5,fhrs_5_en-gb,2012/07/30,0,0,0,"(51.380042, -2.359261)",51.380042,-2.359261,false,35,12,7,1,20
591350,13/00145/MIXED,Meatbusters Burger Bar,Pub/bar/nightclub,7843,Burgers And Barrels,2 Victoria Buildings,Twerton,Bath,BA2 3EH,5,fhrs_5_en-gb,2018/04/10,5,5,5,"(51.381618499756, -2.3753669261932)",51.381618499756,-2.3753669261932,false,32,538,13,1,103
204409,02950/3300/2/000,Baxter Storey At Wessex Water Operations Centre,Restaurant/Cafe/Canteen,1,Wessex Water Operations Centre,Claverton Down Road,Claverton Down,Bath,BA2 7WW,5,fhrs_5_en-gb,2018/07/30,0,0,0,"(51.364817, -2.319886)",51.364817,-2.319886,false,19,105,18,1,37
204488,15470/1000/3/C02,Timsbury Cricket Club,Other catering premises,7841,Timsbury Cricket Club  Conygre Hall,North Road,Timsbury,Bath,BA2 0JQ,0,fhrs_exempt_en-gb,,,,,"(51.328433, -2.476719)",51.328433,-2.476719,false,14,458,16,1,87
205604,12680/1900/2/DC1,Co-Op Stop And Shop,Retailers - supermarkets/hypermarkets,7840,Co-Op,5 Park Place,The Avenue,Combe Down,BA2 5EH,5,fhrs_5_en-gb,2018/06/12,5,5,0,"(51.359866, -2.346895)",51.359866,-2.346895,false,19,117,18,1,38
204362,14900/0075/0/000,Marksbury Village Hall,Other catering premises,7841,75 The Street,Marksbury,Bath,Bath And North East Somerset,BA2 9HP,0,fhrs_exempt_en-gb,,,,,"(51.359697, -2.481295)",51.359697,-2.481295,false,8,130,16,1,40
204904,11/00281/MIXED,Free Rangers Nursery,Caring Premises,5,Manor Farm,Millards Hill,Welton,Midsomer Norton,BA3 2BW,5,fhrs_5_en-gb,2018/02/27,0,5,5,"(51.293191, -2.475264)",51.293191,-2.475264,false,11,279,25,1,8
204136,14120/0030/0/000,Superdrug Stores,Retailers - other,4613,Superdrug,31 - 32 Westgate Street,City Centre,Bath,BA1 1EL,0,fhrs_exempt_en-gb,,,,,"(51.381601, -2.361055)",51.381601,-2.361055,false,35,10,7,1,20
204958,15474/0000/3/C01,Bumbles (Welton Sch Playgroup),Caring Premises,5,Welton School Playgroup  Welton Cou,Radstock Road,Midsomer Norton,Radstock,BA3 2AG,4,fhrs_4_en-gb,2019/07/02,5,5,10,"(51.290031, -2.474027)",51.290031,-2.474027,false,11,285,25,1,8
205314,15518/1000/2/000,Paulton Village Hall,Other catering premises,7841,Farrington Road,Paulton,Bristol,Bath And North East Somerset,BS39 7LW,0,fhrs_exempt_en-gb,,,,,"(51.306775, -2.505932)",51.306775,-2.505932,false,13,363,23,1,68
205431,13700/0029/0/000,Fine Cheese Company,Retailers - other,4613,The Fine Cheese Company,29 - 31 Walcot Street,Bath,,BA1 5BN,5,fhrs_5_en-gb,2019/06/26,5,5,5,"(51.384878, -2.359816)",51.384878,-2.359816,false,35,11,7,1,20
205457,10230/0024/0/000,The Ayrlington,Hotel/bed & breakfast/guest house,7842,Ayrlington Hotel,24 - 25 Pulteney Road,Bathwick,Bath,BA2 4EZ,4,fhrs_4_en-gb,2019/04/09,5,5,10,"(51.3828133, -2.3518402)",51.3828133,-2.3518402,false,35,3,7,1,21
813336,15/00172/FOOD,Corvinus Cakes,Other catering premises,7841,,,,,BA1 ,5,fhrs_5_en-gb,2015/10/22,5,5,5,,,,false,,,,,
688883,14/00114/MIXED,Lansdown Golf Club - F And B Caterers Ltd,Restaurant/Cafe/Canteen,1,Lansdown Golf Club,Lansdown Road,Charlcombe,Bath,BA1 9BT,5,fhrs_5_en-gb,2017/01/26,0,0,0,"(51.416232, -2.395883)",51.416232,-2.395883,false,1,47,10,1,25
205347,10050/0005/0/000,Adventure Cafe,Restaurant/Cafe/Canteen,1,Adventure Cafe,5 Princes Buildings,City Centre,Bath,BA1 2ED,5,fhrs_5_en-gb,2018/03/19,5,5,5,"(51.385242462158, -2.3612849712372)",51.385242462158,-2.3612849712372,false,35,4,7,1,22
205504,09/00070/MIXED,The Hut,Caring Premises,5,Hinton Close,Twerton,Bath,,BA2 1RX,5,fhrs_5_en-gb,2014/01/20,5,5,5,"(51.381838, -2.404193)",51.381838,-2.404193,false,28,480,11,1,91
204692,14220/5100/2/000,Cranhill Nursing Home,Caring Premises,5,Weston Road,Lower Weston,Bath,Bath And North East Somerset,BA1 2YA,5,fhrs_5_en-gb,2019/08/27,0,5,0,"(51.389824, -2.37667)",51.389824,-2.37667,false,20,548,5,1,107
205058,12590/2000/2/000,Bath Spa Hotel,Hotel/bed & breakfast/guest house,7842,Heritage The Bath Spa Hotel,Sydney Road,Bathwick,Bath,BA2 6JF,5,fhrs_5_en-gb,2018/12/19,,,,"(51.386021, -2.344578)",51.386021,-2.344578,false,22,72,12,1,30
205381,14330/1000/2/000,Hillier Garden Centre Coffee Shop,Restaurant/Cafe/Canteen,1,Cafe Linden,Hillier Garden Centre,Whiteway Road,Whiteway,BA2 2RG,5,fhrs_5_en-gb,2018/11/05,5,5,0,"(51.369046, -2.400431)",51.369046,-2.400431,false,27,443,15,1,83
681664,12/00001/FOOD,Breakfast And Afterschool Club,School/college/university,7845,Moorlands Infant School,Moorfields Road,Moorlands,Bath,BA2 2DQ,5,fhrs_5_en-gb,2014/06/20,5,5,5,"(51.370745, -2.37637)",51.370745,-2.37637,false,31,355,14,1,65
205268,04/00127/FOOD,Matty's,Restaurant/Cafe/Canteen,1,15 St Peter's Terrace,Oldfield Park,Bath,,BA2 3BT,5,fhrs_5_en-gb,2018/04/24,5,5,5,"(51.381258, -2.375852)",51.381258,-2.375852,false,33,560,12,1,112
905649,16/00089/MIXED,The Oven,Restaurant/Cafe/Canteen,1,3 Seven Dials,Sawclose,City Centre,Bath,BA1 1EN,5,fhrs_5_en-gb,2018/09/07,,,,"(51.381667, -2.362938)",51.381667,-2.362938,false,34,194,9,1,55
1082189,18/00310/MIXED,Kushbu,Takeaway/sandwich shop,7844,6 Augusta Place,Upper Bristol Road,Lower Weston,Bath,BA1 3DD,5,fhrs_5_en-gb,2019/05/02,5,5,5,"(51.38498, -2.381559)",51.38498,-2.381559,false,34,206,9,1,54
565714,13/00111/MIXED,Prezzo,Restaurant/Cafe/Canteen,1,6 Brunel Square,Bath,,,BA1 1SX,5,fhrs_5_en-gb,2018/08/22,0,5,5,"(51.377442, -2.356885)",51.377442,-2.356885,false,35,13,7,1,21
1159005,19/00177/MIXED,Dorian House,Hotel/bed & breakfast/guest house,7842,1 Upper Oldfield Park,Oldfield Park,Bath,Bath And North East Somerset,BA2 3JX,5,fhrs_5_en-gb,2019/07/17,0,5,5,"(51.375331878662, -2.3705739974976)",51.375331878662,-2.3705739974976,false,33,565,12,1,112
978756,17/00188/MIXED,Mega Bite,Takeaway/sandwich shop,7844,Megabytes,26 Walcot Buildings,Walcot,Bath,BA1 6AD,5,fhrs_5_en-gb,2017/07/13,5,0,5,"(51.391073, -2.353986)",51.391073,-2.353986,false,36,492,6,1,96
1129403,19/00098/MIXED,Theatre Royal Bath (Trading) Ltd,Pub/bar/nightclub,7843,Theatre Royal,Sawclose,City Centre,Bath,BA1 1ET,0,fhrs_exempt_en-gb,,,,,"(51.382144, -2.362971)",51.382144,-2.362971,false,34,193,9,1,55
203919,08/00151/MIXED,Boots UK Ltd,Retailers - other,4613,Your Local Boots Pharmacy,201 London Road East,Batheaston,Bath,BA1 7NB,0,fhrs_exempt_en-gb,,,,,"(51.405627, -2.31777)",51.405627,-2.31777,false,1,35,10,1,23
204383,11/00013/MIXED,Pinelea Day Centre,Caring Premises,5,Combe Lea Residential Care Home & D,Greenacres,Midsomer Norton,Radstock,BA3 2RD,5,fhrs_5_en-gb,2016/03/04,0,0,0,"(51.285966, -2.495867)",51.285966,-2.495867,false,25,306,27,1,14
205304,11/00205/MIXED,Mission Burrito,Restaurant/Cafe/Canteen,1,4 New Street,City Centre,Bath,,BA1 2AF,5,fhrs_5_en-gb,2018/02/26,5,5,5,"(51.381278, -2.363754)",51.381278,-2.363754,false,34,196,9,1,55
914681,16/00188/MIXED,St James's Cafe Deli,Restaurant/Cafe/Canteen,1,5 St James's Street,Lansdown,Bath,,BA1 2TW,5,fhrs_5_en-gb,2018/04/25,5,5,5,"(51.388415, -2.367619)",51.388415,-2.367619,false,34,199,9,1,115
903909,16/00186/MIXED,The Juice Collective,Manufacturers/packers,7839,3 Lansdown Mews,Lansdown,Bath,,,5,fhrs_5_en-gb,2016/06/08,5,0,0,,,,false,,,,,
771090,14/00117/MIXED,Belvoir Castle,Pub/bar/nightclub,7843,32 - 33 Victoria Buildings,Twerton,Bath,,BA2 3EH,5,fhrs_5_en-gb,2015/06/23,5,5,5,"(51.381619, -2.375366)",51.381619,-2.375366,false,32,538,13,1,103
205247,03190/1300/2/000,Manor Study Tours Ltd,School/college/university,7845,Sulis Manor,Burnt House Road,Odd Down,Bath,BA2 2AQ,3,fhrs_3_en-gb,2015/07/24,5,10,10,"(51.352353, -2.377712)",51.352353,-2.377712,false,30,327,19,1,61
203974,01560/0081/0/000,Co-Op,Retailers - supermarkets/hypermarkets,7840,Co-Operative Retail Services Ltd,79 - 81 Bradford Road,Combe Down,Bath,BA2 5BP,5,fhrs_5_en-gb,2014/10/13,5,5,5,"(51.359098, -2.360174)",51.359098,-2.360174,false,19,121,18,1,36
205215,06410/1500/2/000,Swainswick Primary School,School/college/university,7845,Swainswick Vc Primary School,Innox Lane,Swainswick,Bath,BA1 8DB,4,fhrs_4_en-gb,2018/01/17,0,10,5,"(51.413679, -2.350768)",51.413679,-2.350768,false,1,51,10,1,25
