title,url,created,state,whensent,category,lastupdate,latitude,longitude,ward,Location,Ward,Output Areas (OA),Middle Layer Super Output Areas (MSOA),Boundary,Lower Layer Super Output Areas (LSOA)
Caravan,https://www.fixmystreet.com/report/122878,2010-07-04 19:00:35 UTC,confirmed,2010-07-04 19:05:02 UTC,Other,2010-07-04 19:05:02 UTC,51.40058458,-2.351277417,Lambridge,"(51.40058458, -2.351277417)",23,221,4,1,56
Stop Lines at Junction,https://www.fixmystreet.com/report/132054,2010-09-06 10:25:59 UTC,unconfirmed,,Other,2010-09-06 10:25:59 UTC,51.37249928,-2.349651049,Widcombe,"(51.37249928, -2.349651049)",33,575,12,1,110
Potholes,https://www.fixmystreet.com/report/969969,2017-02-01 09:13:42 UTC,confirmed,2017-02-01 09:26:31 UTC,Roads/highways,2017-03-01 10:55:43 UTC,51.357334,-2.315411,Monkton Combe,"(51.357334, -2.315411)",10,56,10,1,113
Carriageway Subsidence,https://www.fixmystreet.com/report/365350,2013-06-15 09:24:54 UTC,fixed - user,2013-06-15 09:25:09 UTC,Roads/highways,2015-01-25 17:06:01 UTC,51.42459058,-2.400383547,Charlcombe,"(51.42459058, -2.400383547)",1,47,10,1,25
Motorcycles damaging trees and paths,https://www.fixmystreet.com/report/475824,2014-05-18 10:50:07 UTC,confirmed,2014-05-18 10:55:16 UTC,Pavements/footpaths,2014-05-18 10:55:16 UTC,51.407135,-2.34052,Swainswick,"(51.407135, -2.34052)",1,51,10,1,25
No no entry sign ,https://www.fixmystreet.com/report/18693,2008-03-19 18:19:54 UTC,confirmed,2008-03-19 18:25:02 UTC,Road traffic signs,2008-03-19 18:25:02 UTC,51.38031385,-2.362910434,Abbey,"(51.38031385, -2.362910434)",35,14,7,1,20
Using a disabled space that should not be there.,https://www.fixmystreet.com/report/594353,2015-02-25 16:50:23 UTC,unconfirmed,,Other,2015-02-25 16:50:23 UTC,51.397928,-2.300296,Bathford,"(51.397928, -2.300296)",1,45,10,1,24
Sunken manhole covers and eroding repairs,https://www.fixmystreet.com/report/445700,2014-02-25 09:53:23 UTC,confirmed,2014-02-25 09:55:22 UTC,Potholes,2014-02-25 09:55:22 UTC,51.40441733,-2.556096698,Whitchurch,"(51.40441733, -2.556096698)",7,404,20,1,75
Collapsed house wall at bus stop,https://www.fixmystreet.com/report/843269,2016-06-18 09:43:55 UTC,confirmed,2016-06-18 09:45:16 UTC,Pavements/footpaths,2016-07-26 15:59:55 UTC,51.388501,-2.396773,Newbridge,"(51.388501, -2.396773)",29,315,8,1,16
Road damage following rain,https://www.fixmystreet.com/report/832389,2016-05-30 20:39:40 UTC,fixed - user,2016-05-30 20:40:57 UTC,Potholes,2016-06-30 12:11:12 UTC,51.347253,-2.473212,Farmborough,"(51.347253, -2.473212)",8,127,16,1,40
Pothole,https://www.fixmystreet.com/report/496012,2014-07-02 00:00:41 UTC,confirmed,2014-07-02 00:05:18 UTC,Potholes,2014-07-02 00:05:18 UTC,51.393027,-2.388422,Newbridge,"(51.393027, -2.388422)",29,316,8,1,16
Potholes,https://www.fixmystreet.com/report/447118,2014-02-27 20:22:52 UTC,confirmed,2014-02-27 20:25:22 UTC,Potholes,2014-02-27 20:25:22 UTC,51.31783596,-2.473305197,Paulton,"(51.31783596, -2.473305197)",13,581,23,1,69
Builder's skip,https://www.fixmystreet.com/report/79389,2009-11-09 09:50:43 UTC,fixed,2009-11-09 10:00:02 UTC,Other,2009-12-07 10:58:01 UTC,51.39355379,-2.348166079,Walcot,"(51.39355379, -2.348166079)",36,489,6,1,95
Graffiti,https://www.fixmystreet.com/report/5036,2007-06-05 22:14:20 UTC,unconfirmed,,Graffiti,2007-06-05 22:14:20 UTC,51.39740397,-2.345621378,Lambridge,"(51.39740397, -2.345621378)",23,229,4,1,56
Lots of Potholes,https://www.fixmystreet.com/report/583945,2015-02-08 21:16:10 UTC,fixed - user,2015-02-08 21:20:24 UTC,Potholes,2015-10-15 07:36:00 UTC,51.41480139,-2.393143953,Charlcombe,"(51.41480139, -2.393143953)",1,47,10,1,25
Over grown hedgerow,https://www.fixmystreet.com/report/181758,2011-04-27 11:13:45 UTC,fixed,2011-04-27 12:30:02 UTC,Trees,2011-06-23 06:09:13 UTC,51.345229,-2.4833,Farmborough,"(51.345229, -2.4833)",8,129,16,1,40
People often putting out rubbish several days early,https://www.fixmystreet.com/report/60843,2009-06-09 10:40:59 UTC,confirmed,2009-06-09 10:45:02 UTC,Rubbish (refuse and recycling),2009-06-09 10:45:02 UTC,51.29885124,-2.457727587,Radstock,"(51.29885124, -2.457727587)",12,421,24,1,76
Flooding - No drains to take water away,https://www.fixmystreet.com/report/431453,2014-01-31 14:24:31 UTC,confirmed,2014-01-31 14:32:13 UTC,Pavements/footpaths,2014-01-31 14:32:13 UTC,51.383216,-2.397671,Newbridge,"(51.383216, -2.397671)",29,323,8,1,17
Test,https://www.fixmystreet.com/report/257924,2012-06-15 13:58:42 UTC,unconfirmed,,Abandoned vehicles,2012-06-15 13:58:42 UTC,51.38427791,-2.36806292,Kingsmead,"(51.38427791, -2.36806292)",34,209,9,1,115
Incorrect sign of zebra crossing ahead,https://www.fixmystreet.com/report/862126,2016-07-18 20:15:15 UTC,confirmed,2016-07-18 20:20:15 UTC,Road traffic signs,2016-07-18 20:20:15 UTC,51.359807,-2.479864,Marksbury,"(51.359807, -2.479864)",8,130,16,1,40
Branch broken and overhanging road - could fall (school bus route),https://www.fixmystreet.com/report/704531,2015-10-19 16:26:25 UTC,fixed - user,2015-10-19 16:30:17 UTC,Trees,2015-11-16 16:42:15 UTC,51.307744,-2.410116,Shoscombe,"(51.307744, -2.410116)",10,57,10,1,114
Bin graffiti,https://www.fixmystreet.com/report/951843,2017-01-05 07:59:02 UTC,fixed - user,2017-01-05 08:00:16 UTC,Graffiti,2017-01-19 21:04:24 UTC,51.407798,-2.493151,Keynsham,"(51.407798, -2.493151)",16,142,3,1,46
Abandoned boats sinking,https://www.fixmystreet.com/report/909179,2016-10-08 11:07:28 UTC,confirmed,2016-10-08 11:10:11 UTC,Other,2016-11-05 15:32:12 UTC,51.378082,-2.354996,Abbey,"(51.378082, -2.354996)",35,13,7,1,21
Dog mess on pavement,https://www.fixmystreet.com/report/726103,2015-12-07 17:02:23 UTC,confirmed,2015-12-07 17:05:25 UTC,Dog fouling,2015-12-07 17:05:25 UTC,51.389561,-2.366029,Lansdown,"(51.389561, -2.366029)",21,246,7,1,2
Street Lighting not working,https://www.fixmystreet.com/report/359665,2013-05-24 11:29:04 UTC,confirmed,2013-05-24 11:30:10 UTC,Street lighting,2013-05-24 11:30:10 UTC,51.40026965,-2.39305587,Weston,"(51.40026965, -2.39305587)",20,541,5,1,106
Overgrown Hedge ,https://www.fixmystreet.com/report/273,2007-02-26 16:56:05 UTC,unconfirmed,,Other,2007-02-26 16:56:05 UTC,51.36097057,-2.34933244,Combe Down,"(51.36097057, -2.34933244)",19,118,18,1,38
Blocked drain,https://www.fixmystreet.com/report/29817,2008-09-07 20:50:08 UTC,unconfirmed,,Other,2008-09-07 20:50:08 UTC,51.37826672,-2.510689055,Farmborough,"(51.37826672, -2.510689055)",8,123,16,1,41
Rubbish and recylcing,https://www.fixmystreet.com/report/46861,2009-03-02 12:49:23 UTC,fixed,2009-03-02 12:55:02 UTC,Rubbish (refuse and recycling),2009-03-31 09:30:18 UTC,51.3944809,-2.345517193,Walcot,"(51.3944809, -2.345517193)",36,490,6,1,95
"Hazardous road surface, Junction off of Publow Lane onto unnamed Lane",https://www.fixmystreet.com/report/651844,2015-06-23 12:04:58 UTC,confirmed,2015-06-23 12:10:24 UTC,Roads/highways,2015-06-23 12:10:24 UTC,51.376874,-2.541595,Publow,"(51.376874, -2.541595)",7,398,20,1,74
Dangerous steps,https://www.fixmystreet.com/report/170631,2011-03-04 10:13:33 UTC,unconfirmed,,Pavements/footpaths,2011-03-04 10:13:33 UTC,51.40857703,-2.316944453,Batheaston,"(51.40857703, -2.316944453)",1,35,10,1,23
Broken street light,https://www.fixmystreet.com/report/457348,2014-03-22 22:20:27 UTC,confirmed,2014-03-22 22:25:16 UTC,Street lighting,2014-03-22 22:25:16 UTC,51.35257768,-2.364333984,Southstoke,"(51.35257768, -2.364333984)",10,59,10,1,113
Road falling apart,https://www.fixmystreet.com/report/486012,2014-06-09 16:21:15 UTC,confirmed,2014-06-09 16:25:10 UTC,Roads/highways,2014-06-09 16:25:10 UTC,51.27782696,-2.49845768,Midsomer Norton,"(51.27782696, -2.49845768)",25,298,27,1,12
Abandoned car in lane behind Kensington Place,https://www.fixmystreet.com/report/162084,2011-02-05 12:35:54 UTC,confirmed,2011-02-08 21:00:01 UTC,Abandoned vehicles,2011-05-19 19:12:12 UTC,51.39226302,-2.349643694,Walcot,"(51.39226302, -2.349643694)",36,487,6,1,95
Pothole at BA2 7JD,https://www.fixmystreet.com/report/771072,2016-02-19 13:04:08 UTC,confirmed,2016-02-19 13:05:39 UTC,Potholes,2016-02-19 13:05:39 UTC,51.357677,-2.315398,Monkton Combe,"(51.357677, -2.315398)",10,56,10,1,113
Missing drain/manhole cover,https://www.fixmystreet.com/report/997802,2017-03-08 09:30:21 UTC,confirmed,2017-03-08 09:36:04 UTC,Other,2017-03-08 09:36:04 UTC,51.398887,-2.387157,Weston,"(51.398887, -2.387157)",20,553,5,1,106
Pothole has opened up - hazardous for cycles,https://www.fixmystreet.com/report/940214,2016-12-10 19:43:11 UTC,confirmed,2016-12-10 19:45:11 UTC,Potholes,2016-12-10 19:45:11 UTC,51.339139,-2.48095,Farmborough,"(51.339139, -2.48095)",8,127,16,1,40
Potholes,https://www.fixmystreet.com/report/93063,2010-02-02 07:41:20 UTC,unconfirmed,,Potholes,2010-02-02 07:41:20 UTC,51.35742348,-2.369082113,Lyncombe,"(51.35742348, -2.369082113)",18,262,17,1,4
Incomplete removal of weeds,https://www.fixmystreet.com/report/358272,2013-05-19 00:38:17 UTC,fixed - user,2013-05-19 00:40:09 UTC,Pavements/footpaths,2013-06-03 16:31:42 UTC,51.389364,-2.366148,Kingsmead,"(51.389364, -2.366148)",34,199,9,1,115
Flood lights not working,https://www.fixmystreet.com/report/588859,2015-02-16 23:04:37 UTC,confirmed,2015-02-16 23:05:16 UTC,Parks/landscapes,2015-03-17 07:19:55 UTC,51.380136,-2.409212,Twerton,"(51.380136, -2.409212)",28,481,11,1,91
Incorrect sign,https://www.fixmystreet.com/report/113911,2010-05-10 23:21:37 UTC,confirmed,2010-05-10 23:25:03 UTC,Road traffic signs,2010-08-03 14:43:50 UTC,51.37988736,-2.417240539,Bathavon West,"(51.37988736, -2.417240539)",9,68,22,1,28
Overflowing recycling,https://www.fixmystreet.com/report/476218,2014-05-19 14:03:49 UTC,fixed - user,2014-05-19 14:05:28 UTC,Rubbish (refuse and recycling),2014-06-23 16:34:17 UTC,51.389237,-2.36365,Lansdown,"(51.389237, -2.36365)",21,246,7,1,2
Norton-Radstock Greenway surface.,https://www.fixmystreet.com/report/288579,2012-11-05 20:08:43 UTC,fixed - user,2012-11-05 20:10:14 UTC,Other,2015-08-24 00:09:27 UTC,51.29327513,-2.469733058,Midsomer Norton,"(51.29327513, -2.469733058)",11,282,25,1,8
Huge dip in road,https://www.fixmystreet.com/report/639262,2015-05-26 15:29:26 UTC,confirmed,2015-05-26 15:30:26 UTC,Potholes,2015-05-26 15:30:26 UTC,51.380338,-2.362462,Abbey,"(51.380338, -2.362462)",35,14,7,1,20
Road surface cracked and breaking up in centre,https://www.fixmystreet.com/report/536946,2014-10-25 09:24:16 UTC,confirmed,2014-10-25 09:25:16 UTC,Roads/highways,2014-10-25 09:25:16 UTC,51.39995424,-2.470787384,Saltford,"(51.39995424, -2.470787384)",17,427,16,1,82
Potholes,https://www.fixmystreet.com/report/251358,2012-05-15 00:22:15 UTC,fixed - user,2012-05-15 00:25:05 UTC,Potholes,2012-06-16 13:38:02 UTC,51.393606,-2.304904,Bathford,"(51.393606, -2.304904)",1,45,10,1,24
Parked in taxi rank refused to move,https://www.fixmystreet.com/report/824633,2016-05-15 12:10:26 UTC,confirmed,2016-05-15 12:15:16 UTC,Car parking,2016-05-15 12:15:16 UTC,51.37956,-2.358168,Abbey,"(51.37956, -2.358168)",35,13,7,1,21
Double Parking along road.,https://www.fixmystreet.com/report/713840,2015-11-10 12:09:18 UTC,confirmed,2015-11-10 12:15:18 UTC,Car parking,2015-11-10 12:15:18 UTC,51.371571,-2.38863,Southdown,"(51.371571, -2.38863)",27,441,15,1,85
Pothole on uphill carriageway,https://www.fixmystreet.com/report/993576,2017-03-03 11:01:46 UTC,confirmed,2017-03-03 11:05:59 UTC,Potholes,2017-03-03 11:05:59 UTC,51.401132,-2.304883,Bathford,"(51.401132, -2.304883)",1,41,10,1,26
12inch wide 20inch minimum long pothole,https://www.fixmystreet.com/report/907037,2016-10-04 14:01:23 UTC,fixed - user,2016-10-04 14:05:14 UTC,Potholes,2017-02-22 19:04:13 UTC,51.28425,-2.487995,Midsomer Norton,"(51.28425, -2.487995)",25,304,27,1,13
Dangerous pothole on driving line for motorbikes,https://www.fixmystreet.com/report/809057,2016-04-15 09:38:28 UTC,confirmed,2016-04-15 09:40:09 UTC,Potholes,2016-05-13 12:54:00 UTC,51.370928,-2.547776,Publow,"(51.370928, -2.547776)",7,400,20,1,74
Very poor road surface on bend,https://www.fixmystreet.com/report/994408,2017-03-04 12:50:58 UTC,confirmed,2017-03-04 12:55:13 UTC,Potholes,2017-03-04 12:55:13 UTC,51.402763,-2.469414,Saltford,"(51.402763, -2.469414)",17,427,16,1,82
Deeply sunken drain cover between lamposts number 10 and 11 in direction Bath to Bristol,https://www.fixmystreet.com/report/808301,2016-04-14 07:43:13 UTC,fixed - user,2016-04-14 07:45:42 UTC,Roads/highways,2016-05-12 08:14:35 UTC,51.388612,-2.43402,Corston,"(51.388612, -2.43402)",8,124,16,1,41
Builders rubble in field entrance,https://www.fixmystreet.com/report/747861,2016-01-17 22:06:15 UTC,confirmed,2016-01-17 22:10:35 UTC,Flytipping,2016-01-17 22:10:35 UTC,51.340918,-2.667638,Nempnett Thrubwell,"(51.340918, -2.667638)",4,88,21,1,32
Flytipping of dismantled furniture.,https://www.fixmystreet.com/report/693944,2015-09-24 21:25:04 UTC,confirmed,2015-09-24 21:30:16 UTC,Flytipping,2015-09-24 21:30:16 UTC,51.388209,-2.36447,Lansdown,"(51.388209, -2.36447)",21,247,7,1,2
Pothole still waiting to be fixed.,https://www.fixmystreet.com/report/753884,2016-01-26 16:52:42 UTC,confirmed,2016-01-26 16:55:29 UTC,Potholes,2016-01-26 16:55:29 UTC,51.410759,-2.394859,Charlcombe,"(51.410759, -2.394859)",1,47,10,1,25
Partial demolition of garden wall in conservation area,https://www.fixmystreet.com/report/677972,2015-08-18 14:47:50 UTC,fixed - user,2015-08-18 14:50:17 UTC,Other,2016-03-02 11:42:54 UTC,51.389943,-2.367027,Lansdown,"(51.389943, -2.367027)",21,242,7,1,2
Severe potholes likely to cause damage to cars,https://www.fixmystreet.com/report/990879,2017-02-28 07:59:40 UTC,confirmed,2017-02-28 08:10:44 UTC,Potholes,2017-02-28 08:10:44 UTC,51.346215,-2.455767,Priston,"(51.346215, -2.455767)",9,69,22,1,28
Sunken drain cover,https://www.fixmystreet.com/report/794579,2016-03-24 13:55:23 UTC,fixed - user,2016-03-24 14:00:50 UTC,Potholes,2016-05-19 17:30:14 UTC,51.326831,-2.333399,Hinton Charterhouse,"(51.326831, -2.333399)",10,54,10,1,113
Road surface starting to break up (again),https://www.fixmystreet.com/report/751365,2016-01-22 18:04:33 UTC,fixed - user,2016-01-22 18:05:19 UTC,Potholes,2016-08-20 18:18:53 UTC,51.330652,-2.317236,Hinton Charterhouse,"(51.330652, -2.317236)",10,54,10,1,113
Pothole opened up again,https://www.fixmystreet.com/report/977445,2017-02-09 22:46:02 UTC,confirmed,2017-02-09 22:50:56 UTC,Potholes,2017-02-09 22:50:56 UTC,51.334371,-2.436724,Dunkerton and Tunley,"(51.334371, -2.436724)",9,66,22,1,28
Huge pothole just to the left of centre line going North-this road is a DISGRACE,https://www.fixmystreet.com/report/1005835,2017-03-19 14:43:56 UTC,confirmed,2017-03-19 14:50:20 UTC,Potholes,2017-03-19 14:50:20 UTC,51.324492,-2.458814,Camerton,"(51.324492, -2.458814)",9,63,22,1,28
"Residents' ""Right to Light"" is being denied by overgrown trees",https://www.fixmystreet.com/report/933016,2016-11-25 22:54:38 UTC,confirmed,2016-11-25 23:00:11 UTC,Trees,2017-03-07 22:11:00 UTC,51.375782,-2.406299,Twerton,"(51.375782, -2.406299)",28,475,11,1,90
Litter on the road,https://www.fixmystreet.com/report/980916,2017-02-14 23:58:00 UTC,confirmed,2017-02-15 00:00:19 UTC,Rubbish (refuse and recycling),2017-02-15 00:00:19 UTC,51.341764,-2.545802,Clutton,"(51.341764, -2.545802)",5,95,20,1,34
4 depresed man hole covers,https://www.fixmystreet.com/report/898336,2016-09-19 09:02:31 UTC,confirmed,2016-09-19 09:05:25 UTC,Potholes,2016-10-17 13:19:29 UTC,51.278655,-2.497692,Midsomer Norton,"(51.278655, -2.497692)",25,298,27,1,12
Dip in the road,https://www.fixmystreet.com/report/921796,2016-11-03 07:37:21 UTC,confirmed,2016-11-03 07:40:10 UTC,Roads/highways,2017-02-23 14:04:13 UTC,51.361957,-2.478587,Marksbury,"(51.361957, -2.478587)",8,130,16,1,40
"Fly tipping, inc carpet",https://www.fixmystreet.com/report/802090,2016-04-04 19:20:25 UTC,confirmed,2016-04-04 19:25:15 UTC,Flytipping,2016-04-04 19:25:15 UTC,51.370148,-2.592907,Chew Magna,"(51.370148, -2.592907)",6,79,21,1,31
Traffic Speeding Mounting Pavements,https://www.fixmystreet.com/report/676074,2015-08-13 17:26:07 UTC,confirmed,2015-08-13 17:31:17 UTC,Roads/highways,2015-08-13 17:31:17 UTC,51.375285,-2.386422,Westmoreland,"(51.375285, -2.386422)",32,532,13,1,101
Dog mess on pavement,https://www.fixmystreet.com/report/924324,2016-11-08 13:40:41 UTC,fixed - user,2016-11-08 13:45:54 UTC,Dog fouling,2016-12-06 14:31:00 UTC,51.389629,-2.366206,Lansdown,"(51.389629, -2.366206)",21,246,7,1,2
Pothole,https://www.fixmystreet.com/report/707672,2015-10-27 10:23:34 UTC,fixed - user,2015-10-27 10:25:32 UTC,Potholes,2015-11-24 17:43:23 UTC,51.284538,-2.466261,Westfield,"(51.284538, -2.466261)",26,514,26,1,98
Pothole / sunken drain,https://www.fixmystreet.com/report/817374,2016-04-30 17:50:24 UTC,confirmed,2016-04-30 17:55:22 UTC,Potholes,2016-04-30 17:55:22 UTC,51.372755,-2.330147,Bathwick,"(51.372755, -2.330147)",22,70,12,1,29
Potholes,https://www.fixmystreet.com/report/821623,2016-05-09 11:56:55 UTC,confirmed,2016-05-09 12:00:16 UTC,Potholes,2016-05-09 12:00:16 UTC,51.296702,-2.575892,Hinton Blewett,"(51.296702, -2.575892)",2,273,21,1,6
Potholes,https://www.fixmystreet.com/report/702763,2015-10-15 07:41:04 UTC,confirmed,2015-10-15 07:45:15 UTC,Potholes,2015-10-15 07:45:15 UTC,51.408685,-2.395684,Charlcombe,"(51.408685, -2.395684)",1,47,10,1,25
Potholes and drain needs clearing of leaves,https://www.fixmystreet.com/report/959359,2017-01-16 18:27:12 UTC,confirmed,2017-01-16 18:30:18 UTC,Potholes,2017-02-02 17:47:55 UTC,51.334598,-2.310443,Freshford,"(51.334598, -2.310443)",10,52,10,1,113
Many little potholes,https://www.fixmystreet.com/report/969923,2017-02-01 08:34:28 UTC,confirmed,2017-02-01 08:35:50 UTC,Roads/highways,2017-02-01 08:35:50 UTC,51.391367,-2.359882,Lansdown,"(51.391367, -2.359882)",21,239,7,1,59
Pothole outside Anabels guesthouse,https://www.fixmystreet.com/report/931036,2016-11-22 13:03:06 UTC,confirmed,2016-11-22 13:05:10 UTC,Potholes,2016-11-22 13:05:10 UTC,51.378884,-2.357111,Abbey,"(51.378884, -2.357111)",35,13,7,1,21
Deep pothole,https://www.fixmystreet.com/report/973832,2017-02-06 08:50:21 UTC,confirmed,2017-02-06 08:55:19 UTC,Potholes,2017-03-06 09:14:43 UTC,51.414207,-2.510868,Keynsham,"(51.414207, -2.510868)",24,163,1,1,50
Hedge overgrowing footpath,https://www.fixmystreet.com/report/785047,2016-03-10 11:46:39 UTC,confirmed,2016-03-10 11:50:22 UTC,Pavements/footpaths,2016-03-10 11:50:22 UTC,51.363845,-2.3479,Combe Down,"(51.363845, -2.3479)",19,109,18,1,37
Large deep pothole,https://www.fixmystreet.com/report/770247,2016-02-18 11:06:00 UTC,fixed - user,2016-02-18 11:10:17 UTC,Potholes,2016-03-17 12:46:43 UTC,51.32047,-2.54432,Cameley,"(51.32047, -2.54432)",2,268,20,1,7
Large section of the road is now down to the base course.,https://www.fixmystreet.com/report/942000,2016-12-14 10:30:29 UTC,confirmed,2016-12-14 10:35:11 UTC,Potholes,2016-12-14 10:35:11 UTC,51.31766,-2.445754,Camerton,"(51.31766, -2.445754)",9,63,22,1,28
Badly worn road surface,https://www.fixmystreet.com/report/850765,2016-06-29 18:08:04 UTC,confirmed,2016-06-29 18:10:24 UTC,Roads/highways,2016-06-29 18:10:24 UTC,51.330439,-2.54448,Clutton,"(51.330439, -2.54448)",5,100,20,1,35
Rubbish,https://www.fixmystreet.com/report/834398,2016-06-03 08:56:39 UTC,confirmed,2016-06-03 09:05:16 UTC,Rubbish (refuse and recycling),2016-06-03 09:05:16 UTC,51.380523,-2.358373,Abbey,"(51.380523, -2.358373)",35,12,7,1,20
Street needs cleaning,https://www.fixmystreet.com/report/846843,2016-06-23 15:16:03 UTC,unconfirmed,,Rubbish (refuse and recycling),2016-06-23 15:16:03 UTC,51.378703,-2.384507,Westmoreland,"(51.378703, -2.384507)",32,527,13,1,101
Large pot hole on A368 approach to westway farm from Sutton Wick. Noticed whilst cycling.,https://www.fixmystreet.com/report/765397,2016-02-10 21:41:59 UTC,confirmed,2016-02-10 21:45:37 UTC,Potholes,2016-02-10 21:45:37 UTC,51.329928,-2.60519,Stowey-Sutton,"(51.329928, -2.60519)",4,89,21,1,33
Limited parking for residents caused by hospital staff,https://www.fixmystreet.com/report/739800,2016-01-06 13:43:25 UTC,confirmed,2016-01-06 13:45:09 UTC,Car parking,2016-01-06 13:45:09 UTC,51.392146,-2.386964,Weston,"(51.392146, -2.386964)",20,551,5,1,107
Loose dropped kerb,https://www.fixmystreet.com/report/953990,2017-01-08 14:59:22 UTC,confirmed,2017-01-08 15:05:11 UTC,Pavements/footpaths,2017-01-08 15:05:11 UTC,51.321115,-2.436584,Peasedown St John,"(51.321115, -2.436584)",15,389,22,1,71
Large dangerous pothole on left side,https://www.fixmystreet.com/report/778573,2016-03-01 15:01:39 UTC,confirmed,2016-03-01 15:05:51 UTC,Potholes,2016-03-01 15:05:51 UTC,51.365002,-2.547116,Publow,"(51.365002, -2.547116)",7,397,20,1,74
Bus stop sign has dropped halfway down post making it not easily visible,https://www.fixmystreet.com/report/861230,2016-07-17 14:51:12 UTC,fixed - user,2016-07-17 14:55:40 UTC,Bus stops,2017-03-01 18:12:17 UTC,51.336963,-2.480622,Timsbury,"(51.336963, -2.480622)",14,456,16,1,88
Over grown hedge and dangerous pavement,https://www.fixmystreet.com/report/932013,2016-11-23 21:39:43 UTC,confirmed,2016-11-23 21:45:11 UTC,Pavements/footpaths,2017-03-16 14:17:11 UTC,51.323451,-2.472507,Timsbury,"(51.323451, -2.472507)",14,459,16,1,87
White bmw been left abandon on middle of road since Friday evening,https://www.fixmystreet.com/report/889449,2016-09-03 10:59:09 UTC,fixed - user,2016-09-03 11:00:58 UTC,Abandoned vehicles,2016-10-01 11:55:47 UTC,51.371708,-2.550142,Publow,"(51.371708, -2.550142)",7,400,20,1,74
A pothole getter larger in middle of road.,https://www.fixmystreet.com/report/851904,2016-07-01 14:24:20 UTC,unconfirmed,,Potholes,2016-07-01 14:24:20 UTC,51.405761,-2.491682,Keynsham,"(51.405761, -2.491682)",16,146,3,1,46
New crossing encourages dangerous behaviour,https://www.fixmystreet.com/report/880991,2016-08-18 14:40:31 UTC,confirmed,2016-08-18 14:45:16 UTC,Traffic lights,2016-08-18 14:45:16 UTC,51.384898,-2.36214,Abbey,"(51.384898, -2.36214)",35,4,7,1,22
Potholes in the road,https://www.fixmystreet.com/report/978763,2017-02-12 09:32:31 UTC,confirmed,2017-02-12 09:35:18 UTC,Potholes,2017-02-12 09:35:18 UTC,51.396615,-2.385667,Weston,"(51.396615, -2.385667)",20,546,5,1,107
Hazardous loose aggregate on road from concrete spill,https://www.fixmystreet.com/report/811462,2016-04-19 09:41:04 UTC,confirmed,2016-04-19 09:45:53 UTC,Roads/highways,2016-04-19 09:45:53 UTC,51.376989,-2.409193,Twerton,"(51.376989, -2.409193)",28,470,11,1,90
Two street lights out - dark and dangerous,https://www.fixmystreet.com/report/925360,2016-11-10 17:36:22 UTC,confirmed,2016-11-10 17:40:10 UTC,Street lighting,2016-11-10 17:40:10 UTC,51.41679,-2.502025,Keynsham,"(51.41679, -2.502025)",24,173,1,1,49
Water on road,https://www.fixmystreet.com/report/786852,2016-03-13 11:20:53 UTC,confirmed,2016-03-13 11:25:21 UTC,Roads/highways,2016-03-13 11:25:21 UTC,51.366278,-2.345976,Widcombe,"(51.366278, -2.345976)",33,575,12,1,110
Street Lamps on an midday today,https://www.fixmystreet.com/report/908769,2016-10-07 12:54:23 UTC,fixed - user,2016-10-07 12:55:12 UTC,Street cleaning,2016-11-05 16:19:34 UTC,51.376383,-2.359052,Widcombe,"(51.376383, -2.359052)",33,567,12,1,109
Illegal caravan site on the Bristol-Bath cycle path,https://www.fixmystreet.com/report/807995,2016-04-13 15:57:14 UTC,fixed - user,2016-04-13 16:00:17 UTC,Other,2016-05-23 14:19:04 UTC,51.389122,-2.412969,Newton St Loe,"(51.389122, -2.412969)",9,68,22,1,28
Deep potholes next to drain covers in several locations here,https://www.fixmystreet.com/report/976879,2017-02-09 10:59:18 UTC,confirmed,2017-02-09 11:16:14 UTC,Potholes,2017-02-09 11:16:14 UTC,51.402455,-2.460016,Saltford,"(51.402455, -2.460016)",17,422,16,1,80
Collapsed manhole/inspection cover,https://www.fixmystreet.com/report/784641,2016-03-09 20:07:20 UTC,fixed - user,2016-03-09 20:10:09 UTC,Pavements/footpaths,2016-04-07 22:43:04 UTC,51.293631,-2.440132,Radstock,"(51.293631, -2.440132)",12,411,24,1,77
Badly Designed Roundabout,https://www.fixmystreet.com/report/957505,2017-01-13 18:53:52 UTC,confirmed,2017-01-13 19:11:06 UTC,Roads/highways,2017-02-10 21:30:08 UTC,51.359934,-2.354041,Combe Down,"(51.359934, -2.354041)",19,116,18,1,36
Deep pothole on left side of road from Bris to Bath near lampost no 50,https://www.fixmystreet.com/report/766286,2016-02-12 08:52:48 UTC,fixed - user,2016-02-12 08:55:48 UTC,Potholes,2016-03-11 09:08:00 UTC,51.407511,-2.469725,Saltford,"(51.407511, -2.469725)",17,427,16,1,82
Pot hole by the curb on the left hand side of the road by the roundabout,https://www.fixmystreet.com/report/840091,2016-06-13 10:27:55 UTC,confirmed,2016-06-13 10:30:18 UTC,Potholes,2016-06-13 10:30:18 UTC,51.286991,-2.492036,Midsomer Norton,"(51.286991, -2.492036)",25,301,27,1,14
Amber bulb not working,https://www.fixmystreet.com/report/822334,2016-05-10 15:32:02 UTC,fixed - user,2016-05-10 15:35:43 UTC,Traffic lights,2016-07-09 18:34:59 UTC,51.380505,-2.369505,Widcombe,"(51.380505, -2.369505)",33,559,12,1,112
Patch around drain cover has failed,https://www.fixmystreet.com/report/943359,2016-12-16 14:07:57 UTC,confirmed,2016-12-16 14:10:17 UTC,Potholes,2016-12-16 14:10:17 UTC,51.358297,-2.375992,Lyncombe,"(51.358297, -2.375992)",18,262,17,1,4
Illegal parking in disabled bay,https://www.fixmystreet.com/report/727023,2015-12-09 15:42:55 UTC,unconfirmed,,Car parking,2015-12-09 15:42:55 UTC,51.311223,-2.448511,Camerton,"(51.311223, -2.448511)",9,63,22,1,28
Persistent Fly Tipping!,https://www.fixmystreet.com/report/940215,2016-12-10 19:44:22 UTC,confirmed,2016-12-10 19:45:33 UTC,Flytipping,2016-12-10 19:45:33 UTC,51.305696,-2.459879,Paulton,"(51.305696, -2.459879)",13,581,23,1,69
Pothole outside front door of Dolphin House,https://www.fixmystreet.com/report/973908,2017-02-06 09:48:01 UTC,confirmed,2017-02-06 09:51:21 UTC,Potholes,2017-02-06 09:51:21 UTC,51.336471,-2.314161,Freshford,"(51.336471, -2.314161)",10,52,10,1,113
Potholes,https://www.fixmystreet.com/report/802556,2016-04-05 11:51:52 UTC,confirmed,2016-04-05 11:55:22 UTC,Potholes,2016-04-05 11:55:22 UTC,51.297795,-2.575539,Hinton Blewett,"(51.297795, -2.575539)",2,273,21,1,6
Post Box out of action,https://www.fixmystreet.com/report/672118,2015-08-05 15:47:10 UTC,confirmed,2015-08-05 15:50:18 UTC,Other,2015-08-05 15:50:18 UTC,51.280042,-2.468007,Westfield,"(51.280042, -2.468007)",26,516,26,1,98
Dumped sainsburys trolley,https://www.fixmystreet.com/report/785991,2016-03-11 14:40:49 UTC,confirmed,2016-03-11 14:50:09 UTC,Other,2016-03-11 14:50:09 UTC,51.3601,-2.361483,Combe Down,"(51.3601, -2.361483)",19,121,18,1,36
Money wasting hedge trimmer knocked down verge marker posts,https://www.fixmystreet.com/report/832394,2016-05-30 20:47:32 UTC,confirmed,2016-05-30 20:50:32 UTC,Roads/highways,2016-11-26 11:37:42 UTC,51.347341,-2.473148,Farmborough,"(51.347341, -2.473148)",8,127,16,1,40
Overrunning roadworks,https://www.fixmystreet.com/report/991566,2017-02-28 21:46:34 UTC,fixed - user,2017-02-28 21:50:32 UTC,Roads/highways,2017-03-03 12:38:10 UTC,51.392682,-2.370519,Lansdown,"(51.392682, -2.370519)",21,238,7,1,1
Cars parking on footpaths and grass areas blocking padestrians and bus route.,https://www.fixmystreet.com/report/1006003,2017-03-19 18:32:21 UTC,confirmed,2017-03-19 18:41:29 UTC,Car parking,2017-03-19 18:41:29 UTC,51.322703,-2.478047,Timsbury,"(51.322703, -2.478047)",14,462,16,1,87
Path from road to park,https://www.fixmystreet.com/report/832117,2016-05-30 11:04:14 UTC,confirmed,2016-05-30 11:10:10 UTC,Pavements/footpaths,2016-05-30 11:10:10 UTC,51.285946,-2.47089,Westfield,"(51.285946, -2.47089)",26,509,26,1,97
Somebody living in a tent,https://www.fixmystreet.com/report/848833,2016-06-27 13:43:21 UTC,confirmed,2016-06-27 13:45:11 UTC,Other,2016-06-27 13:45:11 UTC,51.296792,-2.451861,Radstock,"(51.296792, -2.451861)",12,421,24,1,76
Obstruction of footpath,https://www.fixmystreet.com/report/870659,2016-08-01 19:05:07 UTC,confirmed,2016-08-02 16:25:21 UTC,Pavements/footpaths,2016-08-02 16:25:21 UTC,51.401455,-2.464848,Saltford,"(51.401455, -2.464848)",17,433,16,1,82
"Massive pothole in middle of the road, can cause extensive damage to cars",https://www.fixmystreet.com/report/976212,2017-02-08 14:43:30 UTC,confirmed,2017-02-08 14:50:28 UTC,Potholes,2017-02-08 14:50:28 UTC,51.322037,-2.540957,Cameley,"(51.322037, -2.540957)",2,270,20,1,7
Pothole,https://www.fixmystreet.com/report/957497,2017-01-13 18:42:44 UTC,confirmed,2017-01-13 19:10:50 UTC,Potholes,2017-02-10 21:31:12 UTC,51.365484,-2.321758,Combe Down,"(51.365484, -2.321758)",19,105,18,1,37
Very bad litter all along A46 from Bath northwards.,https://www.fixmystreet.com/report/779200,2016-03-02 13:41:27 UTC,confirmed,2016-03-02 13:45:24 UTC,Rubbish (refuse and recycling),2016-03-02 13:45:24 UTC,51.404843,-2.340459,Swainswick,"(51.404843, -2.340459)",1,51,10,1,25
40mph speed limit sign,https://www.fixmystreet.com/report/679951,2015-08-23 23:53:55 UTC,fixed - user,2015-08-23 23:55:23 UTC,Road traffic signs,2015-09-01 20:46:29 UTC,51.329953,-2.409418,Dunkerton and Tunley,"(51.329953, -2.409418)",9,65,22,1,28
Very low trees.,https://www.fixmystreet.com/report/857379,2016-07-11 09:03:40 UTC,confirmed,2016-07-11 10:40:22 UTC,Trees,2016-08-08 12:18:23 UTC,51.31473,-2.439552,Peasedown St John,"(51.31473, -2.439552)",15,392,22,1,71
Terrible and dangerolus potholes in the road outside Tabor Farm. North Road,https://www.fixmystreet.com/report/1005816,2017-03-19 14:10:10 UTC,confirmed,2017-03-19 14:15:19 UTC,Potholes,2017-03-19 14:15:19 UTC,51.32871,-2.478319,Timsbury,"(51.32871, -2.478319)",14,455,16,1,88
Rubble in road,https://www.fixmystreet.com/report/898317,2016-09-19 08:41:24 UTC,fixed - user,2016-09-19 08:45:16 UTC,Flytipping,2016-10-18 21:21:54 UTC,51.335762,-2.669647,Nempnett Thrubwell,"(51.335762, -2.669647)",4,88,21,1,32
One loose manhole cover is very noisy day and night.,https://www.fixmystreet.com/report/968194,2017-01-30 07:02:11 UTC,confirmed,2017-01-30 07:05:23 UTC,Other,2017-01-30 07:05:23 UTC,51.381999,-2.367154,Kingsmead,"(51.381999, -2.367154)",34,195,9,1,55
"Pothole near centreline of road, northbound, just as road merges into single lane",https://www.fixmystreet.com/report/959529,2017-01-16 22:49:23 UTC,fixed - user,2017-01-16 22:50:13 UTC,Potholes,2017-02-13 23:05:13 UTC,51.414621,-2.346069,Swainswick,"(51.414621, -2.346069)",1,51,10,1,25
Pothole/Sunken Manhole,https://www.fixmystreet.com/report/769927,2016-02-17 19:38:04 UTC,confirmed,2016-02-17 19:40:17 UTC,Roads/highways,2016-02-17 19:40:17 UTC,51.408965,-2.396639,Charlcombe,"(51.408965, -2.396639)",1,47,10,1,25
Overgrown weeds,https://www.fixmystreet.com/report/916624,2016-10-24 12:41:06 UTC,confirmed,2016-10-24 12:45:26 UTC,Pavements/footpaths,2016-10-24 12:45:26 UTC,51.292102,-2.447997,Radstock,"(51.292102, -2.447997)",12,413,24,1,79
Large deep pothole,https://www.fixmystreet.com/report/817097,2016-04-29 21:20:33 UTC,fixed - user,2016-04-29 21:25:16 UTC,Potholes,2016-06-24 22:12:32 UTC,51.341274,-2.413604,Dunkerton and Tunley,"(51.341274, -2.413604)",9,65,22,1,28
Pot hole in road on left hand side as if you were driing into Bristol,https://www.fixmystreet.com/report/840152,2016-06-13 11:28:24 UTC,confirmed,2016-06-13 11:30:48 UTC,Potholes,2016-06-13 11:30:48 UTC,51.37165,-2.548976,Publow,"(51.37165, -2.548976)",7,400,20,1,74
Overgrown hedges,https://www.fixmystreet.com/report/864939,2016-07-22 19:37:13 UTC,confirmed,2016-07-22 19:40:09 UTC,Parks/landscapes,2016-08-19 20:05:01 UTC,51.406245,-2.550463,Whitchurch,"(51.406245, -2.550463)",7,403,20,1,75
Damage tree - branch blocking footway,https://www.fixmystreet.com/report/673100,2015-08-07 10:44:39 UTC,confirmed,2015-08-07 10:45:11 UTC,Trees,2015-08-07 10:45:11 UTC,51.388013,-2.367087,Kingsmead,"(51.388013, -2.367087)",34,200,9,1,115
Skip and barriers take up 2 parking spaces not 1,https://www.fixmystreet.com/report/918452,2016-10-27 16:45:25 UTC,fixed - user,2016-10-27 16:50:11 UTC,Roads/highways,2017-01-16 12:37:46 UTC,51.389247,-2.364364,Lansdown,"(51.389247, -2.364364)",21,246,7,1,2
Bags of rubbish in field entrance,https://www.fixmystreet.com/report/936604,2016-12-03 15:46:53 UTC,confirmed,2016-12-03 15:50:16 UTC,Flytipping,2016-12-03 15:50:16 UTC,51.390933,-2.566371,Norton Malreward,"(51.390933, -2.566371)",6,85,21,1,31
Pothole,https://www.fixmystreet.com/report/947325,2016-12-26 13:57:23 UTC,fixed - user,2016-12-26 15:35:11 UTC,Potholes,2017-01-23 16:10:35 UTC,51.362875,-2.340194,Widcombe,"(51.362875, -2.340194)",19,558,12,1,110
Street light not working,https://www.fixmystreet.com/report/706516,2015-10-24 11:39:47 UTC,unconfirmed,,Street lighting,2015-10-24 11:39:47 UTC,51.407958,-2.500395,Keynsham,"(51.407958, -2.500395)",37,186,2,1,53
Two drains blocked with silt causing road to flood when raing hard,https://www.fixmystreet.com/report/806479,2016-04-11 12:05:58 UTC,fixed - user,2016-04-11 12:10:31 UTC,Roads/highways,2017-02-03 17:09:34 UTC,51.334121,-2.524406,Clutton,"(51.334121, -2.524406)",5,95,20,1,34
Overhanging foliage,https://www.fixmystreet.com/report/873247,2016-08-05 14:32:00 UTC,fixed - user,2016-08-05 14:35:20 UTC,Pavements/footpaths,2016-10-01 10:00:55 UTC,51.379453,-2.341379,Bathwick,"(51.379453, -2.341379)",22,77,12,1,29
Dangerous step up/down,https://www.fixmystreet.com/report/717518,2015-11-18 12:15:29 UTC,confirmed,2015-11-18 12:20:45 UTC,Pavements/footpaths,2016-01-06 13:48:02 UTC,51.394559,-2.38056,Weston,"(51.394559, -2.38056)",20,550,5,1,107
Missed recycling collection,https://www.fixmystreet.com/report/684905,2015-09-04 08:21:28 UTC,fixed - user,2015-09-04 08:25:11 UTC,Rubbish (refuse and recycling),2015-09-11 11:23:10 UTC,51.392411,-2.387119,Weston,"(51.392411, -2.387119)",20,551,5,1,107
Overhanging foliage,https://www.fixmystreet.com/report/868288,2016-07-28 12:56:40 UTC,fixed - user,2016-07-28 17:10:23 UTC,Pavements/footpaths,2016-12-16 18:30:07 UTC,51.291805,-2.461406,Radstock,"(51.291805, -2.461406)",12,421,24,1,76
Potholes on edge of carriageway,https://www.fixmystreet.com/report/893816,2016-09-10 20:43:01 UTC,confirmed,2016-09-10 20:45:11 UTC,Potholes,2016-12-03 22:22:18 UTC,51.318118,-2.471059,Camerton,"(51.318118, -2.471059)",9,62,22,1,28
Road flooding and poor road surface,https://www.fixmystreet.com/report/978292,2017-02-11 11:03:24 UTC,confirmed,2017-02-11 11:05:23 UTC,Roads/highways,2017-02-11 11:05:23 UTC,51.325451,-2.650711,Compton Martin,"(51.325451, -2.650711)",4,87,21,1,32
Sunken/broken road surface,https://www.fixmystreet.com/report/850751,2016-06-29 17:41:25 UTC,confirmed,2016-06-29 17:45:17 UTC,Potholes,2016-06-29 17:45:17 UTC,51.330217,-2.547629,Clutton,"(51.330217, -2.547629)",5,100,20,1,35
Flytipping by road,https://www.fixmystreet.com/report/756914,2016-01-30 21:15:22 UTC,confirmed,2016-01-30 21:20:26 UTC,Flytipping,2016-01-30 21:20:26 UTC,51.396172,-2.583864,Whitchurch,"(51.396172, -2.583864)",7,404,20,1,75
Fallen branch in road,https://www.fixmystreet.com/report/935626,2016-12-01 09:08:38 UTC,fixed - user,2016-12-01 09:10:12 UTC,Roads/highways,2017-02-11 10:59:37 UTC,51.348361,-2.638684,Chew Stoke,"(51.348361, -2.638684)",6,82,21,1,31
Cars & caravans dumped in Coombend,https://www.fixmystreet.com/report/848806,2016-06-27 13:21:22 UTC,confirmed,2016-06-27 13:25:09 UTC,Abandoned vehicles,2016-07-25 13:58:02 UTC,51.296275,-2.451611,Radstock,"(51.296275, -2.451611)",12,421,24,1,76
The residents of the bungalows are throwing their garden rubbish onto the public footpath,https://www.fixmystreet.com/report/1001138,2017-03-12 17:33:13 UTC,confirmed,2017-03-12 17:35:35 UTC,Flytipping,2017-03-12 17:35:35 UTC,51.317959,-2.459347,Camerton,"(51.317959, -2.459347)",9,63,22,1,28
Street light M75 not working.,https://www.fixmystreet.com/report/977357,2017-02-09 20:20:07 UTC,fixed - user,2017-02-09 20:25:20 UTC,Street lighting,2017-02-16 19:23:06 UTC,51.285856,-2.470817,Westfield,"(51.285856, -2.470817)",26,509,26,1,97
Large Pothole,https://www.fixmystreet.com/report/748732,2016-01-19 08:23:15 UTC,fixed - user,2016-01-19 08:25:09 UTC,Potholes,2016-02-16 09:08:51 UTC,51.403818,-2.39623,Weston,"(51.403818, -2.39623)",20,555,5,1,105
Rubish everwhere,https://www.fixmystreet.com/report/777433,2016-02-28 21:51:09 UTC,confirmed,2016-02-28 21:55:30 UTC,Rubbish (refuse and recycling),2016-02-28 21:55:30 UTC,51.294621,-2.491947,Midsomer Norton,"(51.294621, -2.491947)",11,280,25,1,10
Inaccessible path,https://www.fixmystreet.com/report/929402,2016-11-19 11:58:49 UTC,confirmed,2016-11-19 14:35:10 UTC,Pavements/footpaths,2016-11-19 14:35:10 UTC,51.381977,-2.395192,Newbridge,"(51.381977, -2.395192)",29,308,8,1,15
Inaccurate and out of date cycle route signage,https://www.fixmystreet.com/report/903918,2016-09-28 18:51:32 UTC,confirmed,2016-09-28 18:55:23 UTC,Road traffic signs,2016-12-22 00:23:26 UTC,51.291343,-2.446953,Radstock,"(51.291343, -2.446953)",12,413,24,1,79
Multiple Pot Holes,https://www.fixmystreet.com/report/751597,2016-01-23 11:16:08 UTC,confirmed,2016-01-23 11:20:32 UTC,Potholes,2016-02-21 10:48:42 UTC,51.391197,-2.382944,Weston,"(51.391197, -2.382944)",20,550,5,1,107
Missed recycling collection,https://www.fixmystreet.com/report/745970,2016-01-14 15:59:46 UTC,fixed - user,2016-01-14 16:05:30 UTC,Rubbish (refuse and recycling),2016-02-11 21:29:29 UTC,51.392312,-2.387152,Weston,"(51.392312, -2.387152)",20,551,5,1,107
6in deep pothole near lamppost No 50,https://www.fixmystreet.com/report/931245,2016-11-22 18:00:45 UTC,fixed - user,2016-11-22 18:05:11 UTC,Potholes,2016-12-23 15:33:34 UTC,51.407542,-2.469822,Saltford,"(51.407542, -2.469822)",17,427,16,1,82
Pothole / depression in the road,https://www.fixmystreet.com/report/817377,2016-04-30 17:52:46 UTC,confirmed,2016-04-30 17:55:33 UTC,Potholes,2016-04-30 17:55:33 UTC,51.366234,-2.319514,Combe Down,"(51.366234, -2.319514)",19,105,18,1,37
Shared use cycle/pedestrian path not signed as such,https://www.fixmystreet.com/report/687561,2015-09-10 09:36:02 UTC,confirmed,2015-09-10 09:40:53 UTC,Road traffic signs,2016-07-15 23:18:44 UTC,51.290792,-2.462188,Westfield,"(51.290792, -2.462188)",26,507,26,1,99
Overgrown bridleways,https://www.fixmystreet.com/report/881472,2016-08-19 13:36:16 UTC,unconfirmed,,Other,2016-08-19 13:36:16 UTC,51.345894,-2.353978,Southstoke,"(51.345894, -2.353978)",10,58,10,1,113
Hedge trim needed,https://www.fixmystreet.com/report/701463,2015-10-12 13:35:31 UTC,confirmed,2015-10-12 13:40:12 UTC,Roads/highways,2015-12-07 18:08:26 UTC,51.291598,-2.461889,Radstock,"(51.291598, -2.461889)",12,421,24,1,76
Graffiti on lamp post,https://www.fixmystreet.com/report/951844,2017-01-05 08:00:37 UTC,confirmed,2017-01-05 08:05:27 UTC,Graffiti,2017-01-05 08:05:27 UTC,51.40846,-2.493419,Keynsham,"(51.40846, -2.493419)",16,142,3,1,46
Pot hole around small drain cover,https://www.fixmystreet.com/report/765459,2016-02-10 23:42:32 UTC,fixed - user,2016-02-10 23:45:21 UTC,Potholes,2016-02-28 22:38:42 UTC,51.310267,-2.494149,Paulton,"(51.310267, -2.494149)",13,375,23,1,69
"Red car abandoned, smashed windscreens",https://www.fixmystreet.com/report/802087,2016-04-04 19:18:03 UTC,confirmed,2016-04-04 19:20:09 UTC,Abandoned vehicles,2016-04-04 19:20:09 UTC,51.369585,-2.58956,Chew Magna,"(51.369585, -2.58956)",6,79,21,1,31
Sudden proliferation of trip hazard backless low benches,https://www.fixmystreet.com/report/821826,2016-05-09 17:00:23 UTC,confirmed,2016-05-09 17:05:10 UTC,Other,2016-06-06 19:14:53 UTC,51.380578,-2.362533,Abbey,"(51.380578, -2.362533)",35,14,7,1,20
Trim back needed.,https://www.fixmystreet.com/report/843743,2016-06-19 13:38:34 UTC,fixed - user,2016-06-19 15:10:14 UTC,Pavements/footpaths,2016-08-25 23:50:30 UTC,51.286069,-2.47329,Westfield,"(51.286069, -2.47329)",26,509,26,1,97
Plastic salt/grit bin on Staples Hill smashed up,https://www.fixmystreet.com/report/709520,2015-10-31 19:26:39 UTC,fixed - user,2015-10-31 19:30:12 UTC,Other,2017-01-16 18:29:29 UTC,51.33448,-2.300964,Freshford,"(51.33448, -2.300964)",10,52,10,1,113
Diseased/rotten tree posing risk to property,https://www.fixmystreet.com/report/757827,2016-02-01 10:32:15 UTC,confirmed,2016-02-01 10:35:21 UTC,Trees,2016-03-03 12:13:14 UTC,51.368187,-2.605427,Chew Magna,"(51.368187, -2.605427)",6,78,21,1,31
Road surface worn away just where all traffic is trying to turn the curve. Location between supermarket exit and A4 Bath exit,https://www.fixmystreet.com/report/976883,2017-02-09 11:04:32 UTC,confirmed,2017-02-09 11:17:36 UTC,Potholes,2017-02-09 11:17:36 UTC,51.412654,-2.482117,Keynsham,"(51.412654, -2.482117)",16,154,3,1,47
Abandoned Car,https://www.fixmystreet.com/report/969973,2017-02-01 09:16:40 UTC,confirmed,2017-02-01 09:26:47 UTC,Abandoned vehicles,2017-02-01 11:47:54 UTC,51.398301,-2.33717,Lambridge,"(51.398301, -2.33717)",23,230,4,1,58
Pothole outside entrance to rainbow woods,https://www.fixmystreet.com/report/785018,2016-03-10 11:25:06 UTC,confirmed,2016-03-10 11:30:22 UTC,Potholes,2016-03-10 11:30:22 UTC,51.362837,-2.340221,Combe Down,"(51.362837, -2.340221)",19,113,18,1,37
Pothole on the white line of the road,https://www.fixmystreet.com/report/1005980,2017-03-19 17:56:40 UTC,confirmed,2017-03-19 18:01:36 UTC,Potholes,2017-03-19 18:01:36 UTC,51.380034,-2.552209,Publow,"(51.380034, -2.552209)",7,399,20,1,74
Load of junk dumped outside kids playground,https://www.fixmystreet.com/report/851621,2016-07-01 08:21:00 UTC,unconfirmed,,Flytipping,2016-07-01 08:21:00 UTC,51.400084,-2.55278,Whitchurch,"(51.400084, -2.55278)",7,403,20,1,75
Missing warning signs,https://www.fixmystreet.com/report/846939,2016-06-23 17:20:40 UTC,confirmed,2016-06-23 17:25:27 UTC,Roads/highways,2016-06-23 17:25:27 UTC,51.420899,-2.52245,Keynsham,"(51.420899, -2.52245)",24,161,1,1,48
Pot holes,https://www.fixmystreet.com/report/771807,2016-02-20 17:13:54 UTC,confirmed,2016-02-20 17:15:38 UTC,Potholes,2016-02-20 17:15:38 UTC,51.419358,-2.514983,Keynsham,"(51.419358, -2.514983)",24,161,1,1,48
Pothole outside Wellow Trekking Stables,https://www.fixmystreet.com/report/922180,2016-11-03 16:02:50 UTC,fixed - user,2016-11-03 16:05:59 UTC,Potholes,2016-11-13 08:54:02 UTC,51.322805,-2.365457,Wellow,"(51.322805, -2.365457)",10,60,10,1,114
Surface condition of tarmac very poor along the whole of Inverness Road,https://www.fixmystreet.com/report/959371,2017-01-16 18:36:31 UTC,confirmed,2017-01-16 18:41:22 UTC,Potholes,2017-01-16 18:41:22 UTC,51.380456,-2.385331,Westmoreland,"(51.380456, -2.385331)",32,523,13,1,102
15 dimpled plastic bags in the hedge plus a huge number of discarded bottles and tins along this stretch of country lane,https://www.fixmystreet.com/report/1000222,2017-03-11 07:14:19 UTC,confirmed,2017-03-11 07:15:13 UTC,Flytipping,2017-03-11 07:15:13 UTC,51.408635,-2.547891,Whitchurch,"(51.408635, -2.547891)",7,403,20,1,75
40mph repeater signs are missing,https://www.fixmystreet.com/report/862142,2016-07-18 20:46:05 UTC,confirmed,2016-07-18 20:50:09 UTC,Road traffic signs,2016-07-18 20:50:09 UTC,51.40287,-2.461582,Saltford,"(51.40287, -2.461582)",17,430,16,1,80
Abandoned car in busy junction,https://www.fixmystreet.com/report/941920,2016-12-14 08:59:23 UTC,fixed - user,2016-12-14 09:00:11 UTC,Abandoned vehicles,2017-01-11 09:54:43 UTC,51.359467,-2.318243,Monkton Combe,"(51.359467, -2.318243)",10,56,10,1,113
Broken pavement surface,https://www.fixmystreet.com/report/859749,2016-07-14 14:46:32 UTC,fixed - user,2016-07-14 14:50:33 UTC,Pavements/footpaths,2016-08-31 11:54:36 UTC,51.389455,-2.365772,Lansdown,"(51.389455, -2.365772)",21,246,7,1,2
Dislodged kerbstones at corner,https://www.fixmystreet.com/report/712648,2015-11-07 19:26:44 UTC,fixed - user,2015-11-07 19:30:26 UTC,Pavements/footpaths,2015-12-06 15:54:42 UTC,51.392374,-2.365608,Lansdown,"(51.392374, -2.365608)",21,240,7,1,1
Out of date cycle route markings,https://www.fixmystreet.com/report/694787,2015-09-27 15:43:36 UTC,confirmed,2015-09-27 15:45:14 UTC,Road traffic signs,2016-02-15 17:27:27 UTC,51.292013,-2.445957,Radstock,"(51.292013, -2.445957)",12,413,24,1,79
Big pot hole on junction,https://www.fixmystreet.com/report/809457,2016-04-15 19:12:19 UTC,confirmed,2016-04-15 19:15:16 UTC,Potholes,2016-04-15 19:15:16 UTC,51.283335,-2.487575,Midsomer Norton,"(51.283335, -2.487575)",25,302,27,1,13
M74 street light just glowing red and flashing.,https://www.fixmystreet.com/report/995439,2017-03-05 19:20:59 UTC,fixed - user,2017-03-05 19:25:20 UTC,Street lighting,2017-03-13 19:05:42 UTC,51.285467,-2.470865,Westfield,"(51.285467, -2.470865)",26,509,26,1,97
Lane markings completely worn away,https://www.fixmystreet.com/report/669596,2015-07-30 16:23:06 UTC,confirmed,2015-07-30 16:25:11 UTC,Road traffic signs,2015-07-30 16:25:11 UTC,51.424867,-2.516492,Keynsham,"(51.424867, -2.516492)",24,161,1,1,48
Dangerous pothole on Paulto Hill,https://www.fixmystreet.com/report/804796,2016-04-08 11:49:22 UTC,confirmed,2016-04-08 11:55:17 UTC,Potholes,2016-07-27 08:37:41 UTC,51.309011,-2.480275,Paulton,"(51.309011, -2.480275)",13,581,23,1,69
Over grown plants /bushes blocking pavement.,https://www.fixmystreet.com/report/893186,2016-09-09 12:06:25 UTC,confirmed,2016-09-10 18:55:17 UTC,Pavements/footpaths,2017-03-02 17:00:23 UTC,51.284678,-2.459621,Westfield,"(51.284678, -2.459621)",26,518,26,1,98
No gateway signs tio show change in speed limit,https://www.fixmystreet.com/report/908395,2016-10-06 17:34:44 UTC,confirmed,2016-10-06 17:40:21 UTC,Road traffic signs,2016-11-03 20:56:34 UTC,51.278484,-2.474075,Westfield,"(51.278484, -2.474075)",26,520,26,1,100
Poor condition of footpaths.,https://www.fixmystreet.com/report/1006006,2017-03-19 18:36:37 UTC,confirmed,2017-03-19 18:41:02 UTC,Pavements/footpaths,2017-03-19 18:41:02 UTC,51.322785,-2.478109,Timsbury,"(51.322785, -2.478109)",14,462,16,1,87
"Terrible road surface on the only ""safe"" way to Saltford for bicycles",https://www.fixmystreet.com/report/903050,2016-09-27 10:18:29 UTC,confirmed,2016-09-27 10:20:19 UTC,Potholes,2016-09-27 10:20:19 UTC,51.392987,-2.468861,Saltford,"(51.392987, -2.468861)",17,427,16,1,82
"Gully blocked, flooding, access to public footpath blocked (leads to school)",https://www.fixmystreet.com/report/737288,2016-01-03 13:17:43 UTC,confirmed,2016-01-03 13:20:22 UTC,Roads/highways,2016-01-03 13:20:22 UTC,51.30651,-2.412627,Shoscombe,"(51.30651, -2.412627)",10,57,10,1,114
Returning Potholes,https://www.fixmystreet.com/report/753877,2016-01-26 16:44:10 UTC,confirmed,2016-01-26 16:45:15 UTC,Potholes,2016-01-26 16:45:15 UTC,51.431522,-2.402186,Charlcombe,"(51.431522, -2.402186)",1,47,10,1,25
Road surface breaking up with deep trough,https://www.fixmystreet.com/report/808302,2016-04-14 07:44:47 UTC,confirmed,2016-04-14 07:45:18 UTC,Roads/highways,2016-04-14 07:45:18 UTC,51.401371,-2.4564,Saltford,"(51.401371, -2.4564)",17,422,16,1,80
No entry for vehicles sign needed,https://www.fixmystreet.com/report/853584,2016-07-04 20:49:36 UTC,confirmed,2016-07-04 20:50:21 UTC,Road traffic signs,2016-07-04 20:50:21 UTC,51.383374,-2.372044,Kingsmead,"(51.383374, -2.372044)",34,209,9,1,115
Grossly overhanging tree 84 newbridge hill,https://www.fixmystreet.com/report/867061,2016-07-26 16:11:23 UTC,confirmed,2016-07-26 16:15:30 UTC,Trees,2016-07-26 16:15:30 UTC,51.387951,-2.395054,Newbridge,"(51.387951, -2.395054)",29,319,8,1,16
Missing bollards and chevrons,https://www.fixmystreet.com/report/795938,2016-03-27 22:56:05 UTC,confirmed,2016-03-27 23:00:19 UTC,Road traffic signs,2016-05-24 21:28:57 UTC,51.420785,-2.521914,Keynsham,"(51.420785, -2.521914)",24,161,1,1,48
Sunken drain cover,https://www.fixmystreet.com/report/770737,2016-02-18 22:58:52 UTC,confirmed,2016-02-18 23:00:12 UTC,Roads/highways,2016-02-18 23:00:12 UTC,51.388714,-2.434084,Corston,"(51.388714, -2.434084)",8,125,16,1,41
Destroyed bench,https://www.fixmystreet.com/report/986460,2017-02-21 22:17:38 UTC,confirmed,2017-02-21 22:20:22 UTC,Other,2017-02-21 22:20:22 UTC,51.288272,-2.461699,Westfield,"(51.288272, -2.461699)",26,507,26,1,99
A lot of litter,https://www.fixmystreet.com/report/981029,2017-02-15 08:47:05 UTC,confirmed,2017-02-15 08:50:27 UTC,Flytipping,2017-02-15 08:50:27 UTC,51.367184,-2.478575,Marksbury,"(51.367184, -2.478575)",8,130,16,1,40
This dual carriageway is used more and more by cyclists - please can it have a cyclepath?,https://www.fixmystreet.com/report/765516,2016-02-11 08:13:18 UTC,confirmed,2016-02-11 08:15:21 UTC,Roads/highways,2016-02-11 08:15:21 UTC,51.368535,-2.478384,Marksbury,"(51.368535, -2.478384)",8,130,16,1,40
Hedge overgrowing pavement,https://www.fixmystreet.com/report/785045,2016-03-10 11:45:11 UTC,confirmed,2016-03-10 11:50:40 UTC,Pavements/footpaths,2016-03-10 11:50:40 UTC,51.362763,-2.346521,Combe Down,"(51.362763, -2.346521)",19,106,18,1,38
Large Potholes,https://www.fixmystreet.com/report/678522,2015-08-19 19:47:32 UTC,fixed - user,2015-08-19 19:50:11 UTC,Potholes,2015-09-17 14:52:40 UTC,51.412048,-2.39419,Charlcombe,"(51.412048, -2.39419)",1,47,10,1,25
Blocked drain,https://www.fixmystreet.com/report/835087,2016-06-04 15:12:48 UTC,confirmed,2016-06-04 15:15:31 UTC,Roads/highways,2016-06-04 15:15:31 UTC,51.358814,-2.331538,Monkton Combe,"(51.358814, -2.331538)",10,56,10,1,113
"Bottom of Rush Hill, Chelwood",https://www.fixmystreet.com/report/850717,2016-06-29 16:58:32 UTC,confirmed,2016-06-29 17:00:16 UTC,Road traffic signs,2017-03-10 06:57:20 UTC,51.350616,-2.53866,Chelwood,"(51.350616, -2.53866)",5,94,20,1,34
This area of highway which provides access to residents garages is badly eroded and is a hazard to elderly people who walk across it daily,https://www.fixmystreet.com/report/897280,2016-09-16 16:55:09 UTC,unconfirmed,,Roads/highways,2016-09-16 16:55:09 UTC,51.41332,-2.491795,Keynsham,"(51.41332, -2.491795)",16,153,3,1,45
Hit by truck and damaged,https://www.fixmystreet.com/report/676120,2015-08-13 19:02:30 UTC,fixed - user,2015-08-13 19:05:18 UTC,Road traffic signs,2015-09-10 19:46:45 UTC,51.353021,-2.382263,Odd Down,"(51.353021, -2.382263)",30,327,19,1,61
"Hedges/trees need cutting back in the small lane as cars are getting scratched and to walk up through it, is dangerous.",https://www.fixmystreet.com/report/924184,2016-11-08 10:04:25 UTC,confirmed,2016-11-08 10:10:34 UTC,Trees,2016-12-07 06:52:25 UTC,51.404487,-2.55239,Whitchurch,"(51.404487, -2.55239)",7,403,20,1,75
Street Lamp M81 not working,https://www.fixmystreet.com/report/984275,2017-02-19 11:52:16 UTC,confirmed,2017-02-19 11:55:21 UTC,Street lighting,2017-03-19 13:25:02 UTC,51.28595,-2.47156,Westfield,"(51.28595, -2.47156)",26,509,26,1,97
Broken street light,https://www.fixmystreet.com/report/969960,2017-02-01 09:08:27 UTC,fixed - user,2017-02-01 09:26:16 UTC,Street lighting,2017-02-15 22:22:10 UTC,51.364706,-2.347973,Combe Down,"(51.364706, -2.347973)",19,109,18,1,37
Road sinking in two places at this junction,https://www.fixmystreet.com/report/965814,2017-01-25 18:39:26 UTC,fixed - user,2017-01-25 18:40:11 UTC,Potholes,2017-03-24 06:44:31 UTC,51.382024,-2.382542,Westmoreland,"(51.382024, -2.382542)",32,578,13,1,103
Better road markings needed,https://www.fixmystreet.com/report/943211,2016-12-16 10:18:47 UTC,confirmed,2016-12-16 11:51:08 UTC,Road traffic signs,2017-01-13 12:33:29 UTC,51.385244,-2.400174,Newbridge,"(51.385244, -2.400174)",29,321,8,1,17
Road surface breaking up between lanes,https://www.fixmystreet.com/report/808303,2016-04-14 07:46:27 UTC,confirmed,2016-04-14 07:50:10 UTC,Roads/highways,2016-04-14 07:50:10 UTC,51.420001,-2.50189,Keynsham,"(51.420001, -2.50189)",24,171,1,1,49
Overgrown nettles blocking pavement,https://www.fixmystreet.com/report/856780,2016-07-09 18:34:03 UTC,confirmed,2016-07-09 18:35:22 UTC,Pavements/footpaths,2016-07-09 18:35:22 UTC,51.385247,-2.371055,Kingsmead,"(51.385247, -2.371055)",34,205,9,1,115
Potholes,https://www.fixmystreet.com/report/1004737,2017-03-17 12:05:53 UTC,confirmed,2017-03-17 12:10:13 UTC,Potholes,2017-03-17 12:10:13 UTC,51.418476,-2.509158,Keynsham,"(51.418476, -2.509158)",24,161,1,1,48
Hit bollard,https://www.fixmystreet.com/report/836796,2016-06-07 16:08:08 UTC,fixed - user,2016-06-07 16:10:10 UTC,Roads/highways,2016-07-09 18:32:29 UTC,51.382875,-2.364694,Kingsmead,"(51.382875, -2.364694)",34,193,9,1,55
Redundant signage,https://www.fixmystreet.com/report/694789,2015-09-27 15:46:24 UTC,confirmed,2015-09-27 15:51:06 UTC,Road traffic signs,2016-02-15 17:26:58 UTC,51.291945,-2.445957,Radstock,"(51.291945, -2.445957)",12,413,24,1,79
Double yellow lines need repainting,https://www.fixmystreet.com/report/716738,2015-11-16 22:10:19 UTC,fixed - user,2015-11-16 22:15:20 UTC,Roads/highways,2017-03-02 11:34:22 UTC,51.388506,-2.367784,Kingsmead,"(51.388506, -2.367784)",34,198,9,1,115
Road not been swept for months/leaves,https://www.fixmystreet.com/report/922380,2016-11-03 23:21:01 UTC,confirmed,2016-11-03 23:25:27 UTC,Street cleaning,2016-12-04 21:37:36 UTC,51.36151,-2.341545,Combe Down,"(51.36151, -2.341545)",19,113,18,1,37
Excessive mud,https://www.fixmystreet.com/report/915333,2016-10-21 09:01:12 UTC,confirmed,2016-10-21 09:05:50 UTC,Roads/highways,2016-10-21 09:05:50 UTC,51.2983,-2.387071,Wellow,"(51.2983, -2.387071)",10,60,10,1,114
Flickering street light,https://www.fixmystreet.com/report/918787,2016-10-28 11:12:34 UTC,fixed - user,2016-10-28 11:15:32 UTC,Street lighting,2016-11-25 11:45:21 UTC,51.293762,-2.491177,Midsomer Norton,"(51.293762, -2.491177)",11,280,25,1,10
Various traffic cones littering the street,https://www.fixmystreet.com/report/689766,2015-09-15 15:04:02 UTC,confirmed,2015-09-15 15:05:19 UTC,Other,2015-09-15 15:05:19 UTC,51.381249,-2.384275,Westmoreland,"(51.381249, -2.384275)",32,579,13,1,103
Misaligned finger signs on recently re-erected post,https://www.fixmystreet.com/report/756681,2016-01-30 15:13:22 UTC,fixed - user,2016-01-30 15:15:31 UTC,Road traffic signs,2016-06-19 15:08:12 UTC,51.29076,-2.462351,Westfield,"(51.29076, -2.462351)",26,507,26,1,99
Deep pot hole on north side of road. Impossible to avoid when passing traffic at this point,https://www.fixmystreet.com/report/933695,2016-11-27 17:57:04 UTC,fixed - user,2016-11-27 18:00:10 UTC,Potholes,2016-12-25 23:13:28 UTC,51.331453,-2.53314,Clutton,"(51.331453, -2.53314)",5,97,20,1,34
Inconsiderate parking,https://www.fixmystreet.com/report/751601,2016-01-23 11:19:09 UTC,confirmed,2016-01-23 11:20:38 UTC,Car parking,2016-01-23 11:20:38 UTC,51.39828,-2.395615,Weston,"(51.39828, -2.395615)",20,543,5,1,108
Dumped furniture (again),https://www.fixmystreet.com/report/788780,2016-03-15 19:04:36 UTC,fixed - user,2016-03-15 19:05:51 UTC,Flytipping,2016-04-12 19:56:20 UTC,51.318888,-2.311296,Hinton Charterhouse,"(51.318888, -2.311296)",10,54,10,1,113
Overgrown verge obstructing view at junction,https://www.fixmystreet.com/report/832432,2016-05-30 22:25:19 UTC,confirmed,2016-05-30 22:30:10 UTC,Roads/highways,2016-05-30 22:30:10 UTC,51.287333,-2.428101,Radstock,"(51.287333, -2.428101)",12,416,24,1,78
Missed rubbish collection,https://www.fixmystreet.com/report/781068,2016-03-04 19:55:41 UTC,confirmed,2016-03-04 21:00:10 UTC,Rubbish (refuse and recycling),2016-03-04 21:00:10 UTC,51.408785,-2.51204,Keynsham,"(51.408785, -2.51204)",24,170,1,1,48
Pothole on roundabout,https://www.fixmystreet.com/report/982112,2017-02-16 13:03:12 UTC,confirmed,2017-02-16 13:05:27 UTC,Potholes,2017-02-16 13:05:27 UTC,51.366577,-2.631039,Chew Magna,"(51.366577, -2.631039)",6,79,21,1,31
Blocked drain,https://www.fixmystreet.com/report/809777,2016-04-16 15:27:52 UTC,confirmed,2016-04-16 18:40:09 UTC,Roads/highways,2016-05-15 20:39:17 UTC,51.333016,-2.418796,Dunkerton and Tunley,"(51.333016, -2.418796)",9,65,22,1,28
"Difficult access for cycles, wheelchairs, recumbents, buggies, anything with wheels",https://www.fixmystreet.com/report/940216,2016-12-10 19:49:01 UTC,confirmed,2016-12-10 19:50:11 UTC,Pavements/footpaths,2016-12-10 19:50:11 UTC,51.345332,-2.490177,Farmborough,"(51.345332, -2.490177)",8,129,16,1,40
Pothole near zebra crossing,https://www.fixmystreet.com/report/980436,2017-02-14 12:56:29 UTC,confirmed,2017-02-14 13:00:13 UTC,Potholes,2017-02-14 13:00:13 UTC,51.323547,-2.510228,High Littleton,"(51.323547, -2.510228)",3,139,23,1,42
Overgrown path,https://www.fixmystreet.com/report/683914,2015-09-02 09:33:12 UTC,fixed - user,2015-09-02 09:35:18 UTC,Pavements/footpaths,2015-09-30 10:06:34 UTC,51.388319,-2.34697,Bathwick,"(51.388319, -2.34697)",22,74,12,1,30
Pothole,https://www.fixmystreet.com/report/957496,2017-01-13 18:41:37 UTC,fixed - user,2017-01-13 19:10:22 UTC,Potholes,2017-02-10 21:31:30 UTC,51.364951,-2.345925,Widcombe,"(51.364951, -2.345925)",33,558,12,1,110
Lack of enforcement re a boards,https://www.fixmystreet.com/report/767424,2016-02-13 23:59:38 UTC,confirmed,2016-02-14 00:00:17 UTC,Other,2016-07-08 01:05:24 UTC,51.360513,-2.345711,Combe Down,"(51.360513, -2.345711)",19,103,18,1,37
Vegetation Overhanging Road,https://www.fixmystreet.com/report/940119,2016-12-10 15:03:57 UTC,confirmed,2016-12-10 15:05:10 UTC,Roads/highways,2016-12-10 15:05:10 UTC,51.301483,-2.421166,Peasedown St John,"(51.301483, -2.421166)",15,377,22,1,72
Hedges impeding the footpath,https://www.fixmystreet.com/report/925216,2016-11-10 13:13:53 UTC,confirmed,2016-11-10 13:20:12 UTC,Pavements/footpaths,2016-11-10 13:20:12 UTC,51.402604,-2.469687,Saltford,"(51.402604, -2.469687)",17,427,16,1,82
"Large amounts of waste and building material being dumped and the covered in stone which has been delivered by a tractor and trailer. lots of the material has fallen into the Brook, large machinery parked and lots of diesel spillage.",https://www.fixmystreet.com/report/977900,2017-02-10 15:54:24 UTC,confirmed,2017-02-10 16:01:37 UTC,Flytipping,2017-02-10 16:01:37 UTC,51.412901,-2.317173,Batheaston,"(51.412901, -2.317173)",1,34,10,1,25
Car parked on double yellow lines causing traffic to back up / congestion,https://www.fixmystreet.com/report/893555,2016-09-10 09:44:06 UTC,fixed - user,2016-09-10 09:45:17 UTC,Car parking,2016-10-08 11:58:18 UTC,51.396517,-2.321576,Bathampton,"(51.396517, -2.321576)",1,30,10,1,27
Bus stop matrix display,https://www.fixmystreet.com/report/994182,2017-03-04 09:34:17 UTC,confirmed,2017-03-04 09:35:14 UTC,Bus stops,2017-03-04 09:35:14 UTC,51.289373,-2.457866,Westfield,"(51.289373, -2.457866)",26,521,26,1,99
Pothole in middle of road A37,https://www.fixmystreet.com/report/840147,2016-06-13 11:23:16 UTC,confirmed,2016-06-13 11:25:32 UTC,Potholes,2016-06-13 11:25:32 UTC,51.297017,-2.533501,Farrington Gurney,"(51.297017, -2.533501)",3,133,23,1,43
Pothole on the left hand side going up the hill,https://www.fixmystreet.com/report/729927,2015-12-15 23:40:59 UTC,confirmed,2015-12-15 23:45:12 UTC,Potholes,2015-12-15 23:45:12 UTC,51.389772,-2.358549,Walcot,"(51.389772, -2.358549)",36,497,6,1,96
Sunken drain & pothole,https://www.fixmystreet.com/report/826462,2016-05-18 12:26:00 UTC,fixed - user,2016-05-18 12:30:11 UTC,Potholes,2016-06-16 20:40:22 UTC,51.362726,-2.369501,Lyncombe,"(51.362726, -2.369501)",18,259,17,1,4
"BT phone box graffiti, obscene words",https://www.fixmystreet.com/report/749980,2016-01-20 20:21:09 UTC,unconfirmed,,Graffiti,2016-01-20 20:21:09 UTC,51.408239,-2.484536,Keynsham,"(51.408239, -2.484536)",16,141,3,1,47
Pothole,https://www.fixmystreet.com/report/1001082,2017-03-12 16:22:24 UTC,confirmed,2017-03-12 16:25:33 UTC,Potholes,2017-03-12 16:25:33 UTC,51.335326,-2.663339,Chew Stoke,"(51.335326, -2.663339)",6,84,21,1,31
Light isn't working,https://www.fixmystreet.com/report/777432,2016-02-28 21:48:13 UTC,confirmed,2016-02-28 21:55:17 UTC,Street lighting,2016-02-28 21:55:17 UTC,51.293862,-2.488096,Midsomer Norton,"(51.293862, -2.488096)",11,275,25,1,9
Pile of rubbish on side of lane,https://www.fixmystreet.com/report/929527,2016-11-19 16:59:06 UTC,fixed - user,2016-11-19 17:00:17 UTC,Flytipping,2017-01-21 17:01:26 UTC,51.33863,-2.667598,Nempnett Thrubwell,"(51.33863, -2.667598)",4,88,21,1,32
Dangerous junction- needs traffic light control,https://www.fixmystreet.com/report/831120,2016-05-27 15:00:36 UTC,confirmed,2016-05-27 15:05:48 UTC,Roads/highways,2016-11-15 13:17:51 UTC,51.380671,-2.387778,Westmoreland,"(51.380671, -2.387778)",32,523,13,1,103
Street light not working,https://www.fixmystreet.com/report/706522,2015-10-24 11:51:22 UTC,confirmed,2015-10-24 12:05:14 UTC,Street lighting,2015-10-24 12:05:14 UTC,51.408106,-2.500223,Keynsham,"(51.408106, -2.500223)",37,186,2,1,53
Health & safety issue,https://www.fixmystreet.com/report/719358,2015-11-22 19:58:37 UTC,confirmed,2015-11-22 20:00:18 UTC,Rubbish (refuse and recycling),2015-11-22 20:00:18 UTC,51.399633,-2.342836,Lambridge,"(51.399633, -2.342836)",23,220,4,1,58
Blocked drain overflowing and smelling of cider,https://www.fixmystreet.com/report/724464,2015-12-03 16:20:33 UTC,confirmed,2015-12-03 16:25:16 UTC,Other,2015-12-03 16:25:16 UTC,51.336112,-2.519554,Clutton,"(51.336112, -2.519554)",5,95,20,1,34
Bad Fall,https://www.fixmystreet.com/report/703480,2015-10-16 17:42:54 UTC,confirmed,2015-10-16 17:45:18 UTC,Potholes,2015-10-16 17:45:18 UTC,51.364946,-2.615546,Chew Magna,"(51.364946, -2.615546)",6,80,21,1,31
Pothole at junction,https://www.fixmystreet.com/report/976256,2017-02-08 15:21:42 UTC,confirmed,2017-02-08 15:25:16 UTC,Potholes,2017-02-08 15:25:16 UTC,51.376941,-2.360534,Widcombe,"(51.376941, -2.360534)",33,567,12,1,109
Fly tipping,https://www.fixmystreet.com/report/947867,2016-12-28 11:05:43 UTC,confirmed,2016-12-28 11:10:54 UTC,Flytipping,2016-12-28 11:10:54 UTC,51.395471,-2.585298,Norton Malreward,"(51.395471, -2.585298)",6,85,21,1,31
Bag of rubbish on corner of Haviland Park,https://www.fixmystreet.com/report/807564,2016-04-12 22:12:20 UTC,unconfirmed,,Rubbish (refuse and recycling),2016-04-12 22:12:20 UTC,51.407686,-2.399632,Charlcombe,"(51.407686, -2.399632)",1,47,10,1,25
Pothole on uphill carriageway,https://www.fixmystreet.com/report/993575,2017-03-03 11:01:04 UTC,confirmed,2017-03-03 11:05:42 UTC,Potholes,2017-03-03 11:05:42 UTC,51.401045,-2.306267,Bathford,"(51.401045, -2.306267)",1,41,10,1,26
Brambles and bushes overhanging a long way into road,https://www.fixmystreet.com/report/973841,2017-02-06 08:56:14 UTC,confirmed,2017-02-06 09:00:55 UTC,Trees,2017-03-06 09:38:28 UTC,51.39872,-2.463106,Saltford,"(51.39872, -2.463106)",17,425,16,1,81
No Lane Markings - Potential accidents every day,https://www.fixmystreet.com/report/672636,2015-08-06 15:20:26 UTC,confirmed,2015-08-06 15:25:48 UTC,Roads/highways,2015-08-06 15:25:48 UTC,51.425535,-2.517137,Keynsham,"(51.425535, -2.517137)",24,161,1,1,48
Dumped black bags of rubbish,https://www.fixmystreet.com/report/759515,2016-02-03 09:35:27 UTC,fixed - user,2016-02-03 09:41:05 UTC,Rubbish (refuse and recycling),2016-03-02 10:37:41 UTC,51.393036,-2.548678,Publow,"(51.393036, -2.548678)",7,399,20,1,74
Multiple deep potholes along stretch of road.,https://www.fixmystreet.com/report/781222,2016-03-05 10:11:43 UTC,confirmed,2016-03-05 10:15:10 UTC,Potholes,2016-03-05 10:15:10 UTC,51.310493,-2.515354,High Littleton,"(51.310493, -2.515354)",3,136,23,1,43
Finish the job please,https://www.fixmystreet.com/report/957859,2017-01-14 14:52:48 UTC,fixed - user,2017-01-14 14:55:41 UTC,Street cleaning,2017-02-12 08:40:31 UTC,51.391985,-2.386631,Weston,"(51.391985, -2.386631)",20,551,5,1,107
Big potholes in Granville Road caused by large construction lorries,https://www.fixmystreet.com/report/798559,2016-03-30 20:37:24 UTC,confirmed,2016-03-30 20:40:15 UTC,Potholes,2016-03-30 20:40:15 UTC,51.406699,-2.372244,Lansdown,"(51.406699, -2.372244)",21,233,7,1,1
Excavation spoil in road.,https://www.fixmystreet.com/report/679216,2015-08-21 12:52:29 UTC,fixed - user,2015-08-21 12:55:17 UTC,Roads/highways,2015-09-18 20:12:13 UTC,51.392656,-2.331339,Bathampton,"(51.392656, -2.331339)",1,26,10,1,27
Lower half of byway between Inglesbatch and Priston Mill has been badly damaged by off-road motorbikes,https://www.fixmystreet.com/report/802527,2016-04-05 11:33:39 UTC,confirmed,2016-04-05 11:35:44 UTC,Pavements/footpaths,2016-04-05 11:35:44 UTC,51.350878,-2.436519,Priston,"(51.350878, -2.436519)",9,69,22,1,28
On Double Yellows at St Peters Road,https://www.fixmystreet.com/report/813297,2016-04-22 11:10:28 UTC,confirmed,2016-04-22 17:00:10 UTC,Car parking,2016-04-22 17:00:10 UTC,51.281833,-2.470299,Westfield,"(51.281833, -2.470299)",26,516,26,1,98
Shopping Trolley,https://www.fixmystreet.com/report/688050,2015-09-11 11:21:56 UTC,confirmed,2015-09-11 11:25:10 UTC,Street cleaning,2015-09-11 11:25:10 UTC,51.391412,-2.385698,Kingsmead,"(51.391412, -2.385698)",34,197,9,1,54
Trees and hedges overhanging road,https://www.fixmystreet.com/report/866768,2016-07-26 10:24:00 UTC,confirmed,2016-07-26 10:26:08 UTC,Trees,2016-09-21 08:50:53 UTC,51.301597,-2.454408,Radstock,"(51.301597, -2.454408)",12,409,24,1,76
Blocked storm drain and tarmac around the inspection chamber by the storm drain is breaking up.,https://www.fixmystreet.com/report/883614,2016-08-23 15:40:00 UTC,confirmed,2016-08-23 15:45:18 UTC,Other,2016-08-23 15:45:18 UTC,51.334171,-2.523843,Clutton,"(51.334171, -2.523843)",5,95,20,1,34
Foorpath on main A36 block by overgrown hedge,https://www.fixmystreet.com/report/882048,2016-08-20 18:23:44 UTC,confirmed,2016-08-20 18:25:23 UTC,Pavements/footpaths,2016-08-20 18:25:23 UTC,51.341394,-2.317524,Freshford,"(51.341394, -2.317524)",10,52,10,1,113
So much litter,https://www.fixmystreet.com/report/981044,2017-02-15 08:58:55 UTC,confirmed,2017-02-15 09:01:11 UTC,Flytipping,2017-02-15 09:01:11 UTC,51.423215,-2.509013,Keynsham,"(51.423215, -2.509013)",24,171,1,1,49
'give way' line needs repainting,https://www.fixmystreet.com/report/903442,2016-09-27 21:28:46 UTC,fixed - user,2016-09-27 21:30:25 UTC,Roads/highways,2017-02-28 16:15:35 UTC,51.389368,-2.366078,Kingsmead,"(51.389368, -2.366078)",34,199,9,1,115
Street lamp M81 just glows red.,https://www.fixmystreet.com/report/977352,2017-02-09 20:15:28 UTC,confirmed,2017-02-09 20:21:05 UTC,Street lighting,2017-03-09 20:59:50 UTC,51.285999,-2.47175,Westfield,"(51.285999, -2.47175)",26,509,26,1,97
Collapsed wall on Pope's Walk,https://www.fixmystreet.com/report/785029,2016-03-10 11:33:30 UTC,confirmed,2016-03-10 11:35:51 UTC,Pavements/footpaths,2016-03-10 11:35:51 UTC,51.362693,-2.345556,Combe Down,"(51.362693, -2.345556)",19,109,18,1,37
"Road surface in poor condition, particularly outside Council Lewis House offices",https://www.fixmystreet.com/report/959380,2017-01-16 18:39:13 UTC,confirmed,2017-01-16 18:41:15 UTC,Potholes,2017-01-16 18:41:15 UTC,51.378632,-2.357131,Abbey,"(51.378632, -2.357131)",35,13,7,1,21
Houses shaking due to poor road condition,https://www.fixmystreet.com/report/970271,2017-02-01 14:35:12 UTC,confirmed,2017-02-01 14:40:57 UTC,Roads/highways,2017-03-23 15:32:20 UTC,51.376799,-2.379374,Oldfield,"(51.376799, -2.379374)",31,349,14,1,63
Broken drains - sunken into the ground - it always breaks!,https://www.fixmystreet.com/report/765510,2016-02-11 08:04:14 UTC,confirmed,2016-02-11 08:05:23 UTC,Potholes,2016-02-11 08:05:23 UTC,51.355271,-2.48437,Marksbury,"(51.355271, -2.48437)",8,130,16,1,40
Parked car on double yellow for 18 hours blocking access to parking space,https://www.fixmystreet.com/report/677225,2015-08-17 08:49:05 UTC,fixed - user,2015-08-17 08:55:17 UTC,Roads/highways,2015-09-14 09:22:15 UTC,51.38027,-2.367539,Kingsmead,"(51.38027, -2.367539)",34,195,9,1,55
Pothole in carriageway,https://www.fixmystreet.com/report/797679,2016-03-30 11:05:08 UTC,fixed - user,2016-03-30 11:10:17 UTC,Potholes,2016-04-02 15:48:38 UTC,51.376964,-2.360083,Widcombe,"(51.376964, -2.360083)",33,567,12,1,109
Yellow box markings warn,https://www.fixmystreet.com/report/925063,2016-11-10 08:36:14 UTC,confirmed,2016-11-10 08:40:38 UTC,Roads/highways,2016-11-10 08:40:38 UTC,51.380217,-2.370386,Widcombe,"(51.380217, -2.370386)",33,563,12,1,112
Circular metal ring on pavement trip hazard,https://www.fixmystreet.com/report/821831,2016-05-09 17:05:51 UTC,confirmed,2016-05-09 17:10:10 UTC,Pavements/footpaths,2016-06-06 19:12:34 UTC,51.376857,-2.353019,Widcombe,"(51.376857, -2.353019)",33,569,12,1,111
Warnings signs of cattle,https://www.fixmystreet.com/report/862144,2016-07-18 20:50:54 UTC,confirmed,2016-07-18 20:55:09 UTC,Road traffic signs,2016-07-18 20:55:09 UTC,51.406672,-2.468942,Saltford,"(51.406672, -2.468942)",17,427,16,1,82
Pothole,https://www.fixmystreet.com/report/765460,2016-02-10 23:44:01 UTC,fixed - user,2016-02-10 23:45:47 UTC,Potholes,2016-03-04 22:44:00 UTC,51.293605,-2.476411,Midsomer Norton,"(51.293605, -2.476411)",11,279,25,1,8
Pothole on the white line after the lights,https://www.fixmystreet.com/report/840117,2016-06-13 10:49:56 UTC,confirmed,2016-06-13 10:50:16 UTC,Potholes,2016-06-13 10:50:16 UTC,51.291366,-2.492662,Midsomer Norton,"(51.291366, -2.492662)",11,280,25,1,10
Rubbish abandoned on pavement and grass verge,https://www.fixmystreet.com/report/785042,2016-03-10 11:41:50 UTC,confirmed,2016-03-10 11:45:47 UTC,Rubbish (refuse and recycling),2016-03-10 11:45:47 UTC,51.362934,-2.346945,Combe Down,"(51.362934, -2.346945)",19,106,18,1,38
Broken land drain.,https://www.fixmystreet.com/report/946153,2016-12-22 06:53:06 UTC,confirmed,2016-12-22 06:55:16 UTC,Other,2017-03-16 14:18:14 UTC,51.323371,-2.472904,Timsbury,"(51.323371, -2.472904)",14,459,16,1,87
Braysdown Lane Dangerous Pothole,https://www.fixmystreet.com/report/772747,2016-02-22 09:22:56 UTC,fixed - user,2016-02-22 09:25:38 UTC,Potholes,2016-03-05 18:58:44 UTC,51.30686,-2.423049,Peasedown St John,"(51.30686, -2.423049)",15,377,22,1,72
Load of junk dumped outside kids playground,https://www.fixmystreet.com/report/851628,2016-07-01 08:34:46 UTC,unconfirmed,,Flytipping,2016-07-01 08:34:46 UTC,51.400084,-2.55278,Whitchurch,"(51.400084, -2.55278)",7,403,20,1,75
Abandoned (?) [portable loo],https://www.fixmystreet.com/report/908420,2016-10-06 18:31:19 UTC,fixed - user,2016-10-06 18:35:22 UTC,Roads/highways,2016-10-15 10:13:10 UTC,51.389893,-2.366727,Lansdown,"(51.389893, -2.366727)",21,246,7,1,2
"Deep pot hole on A37 on Petrol Station side of road, opposite Temple inn Lane junction.",https://www.fixmystreet.com/report/751634,2016-01-23 11:48:52 UTC,fixed - user,2016-01-23 11:55:28 UTC,Roads/highways,2016-02-23 19:11:29 UTC,51.320312,-2.544089,Cameley,"(51.320312, -2.544089)",2,268,20,1,7
Large Pothole,https://www.fixmystreet.com/report/734603,2015-12-28 11:44:39 UTC,fixed - user,2015-12-28 11:45:30 UTC,Potholes,2016-05-21 11:15:44 UTC,51.405502,-2.39657,Weston,"(51.405502, -2.39657)",20,554,5,1,105
Fly tipping,https://www.fixmystreet.com/report/805928,2016-04-10 16:05:22 UTC,confirmed,2016-04-10 16:10:10 UTC,Flytipping,2016-04-10 16:10:10 UTC,51.371549,-2.522245,Compton Dando,"(51.371549, -2.522245)",8,123,16,1,41
Potholes on Manvers Street,https://www.fixmystreet.com/report/1007093,2017-03-21 10:35:57 UTC,confirmed,2017-03-21 10:40:47 UTC,Potholes,2017-03-21 10:40:47 UTC,51.37854,-2.357077,Abbey,"(51.37854, -2.357077)",35,13,7,1,21
White keep clear markings,https://www.fixmystreet.com/report/849675,2016-06-28 13:51:52 UTC,confirmed,2016-06-28 13:55:43 UTC,Roads/highways,2017-03-08 16:42:39 UTC,51.289743,-2.447396,Radstock,"(51.289743, -2.447396)",12,413,24,1,79
Pothole in middle of road,https://www.fixmystreet.com/report/977448,2017-02-09 22:48:50 UTC,confirmed,2017-02-09 22:51:03 UTC,Potholes,2017-02-09 22:51:03 UTC,51.293362,-2.476818,Midsomer Norton,"(51.293362, -2.476818)",11,279,25,1,8
Cycle path signs defaced. Apparent criminal damage.,https://www.fixmystreet.com/report/986464,2017-02-21 22:27:42 UTC,confirmed,2017-02-21 22:30:32 UTC,Road traffic signs,2017-03-22 00:40:16 UTC,51.286698,-2.470932,Westfield,"(51.286698, -2.470932)",26,509,26,1,97
Kerb appears to never have been cleaned this year,https://www.fixmystreet.com/report/678796,2015-08-20 13:09:13 UTC,fixed - user,2015-08-20 13:15:11 UTC,Street cleaning,2015-10-09 15:00:43 UTC,51.379619,-2.389466,Westmoreland,"(51.379619, -2.389466)",32,522,13,1,102
Bus stop sign dropped half way down post,https://www.fixmystreet.com/report/963427,2017-01-22 14:35:02 UTC,fixed - user,2017-01-22 14:40:33 UTC,Bus stops,2017-02-19 17:57:29 UTC,51.336748,-2.481009,Timsbury,"(51.336748, -2.481009)",14,456,16,1,88
This section of road is a series of potholes and a huge depression,https://www.fixmystreet.com/report/817387,2016-04-30 18:06:41 UTC,confirmed,2016-04-30 18:10:15 UTC,Roads/highways,2016-04-30 18:10:15 UTC,51.35847,-2.370852,Lyncombe,"(51.35847, -2.370852)",18,263,17,1,4
Top surface broken up - awful condition,https://www.fixmystreet.com/report/1005995,2017-03-19 18:17:10 UTC,confirmed,2017-03-19 18:20:14 UTC,Roads/highways,2017-03-19 18:20:14 UTC,51.309592,-2.493829,Paulton,"(51.309592, -2.493829)",13,361,23,1,69
Car parking on the pavement,https://www.fixmystreet.com/report/868273,2016-07-28 12:31:00 UTC,confirmed,2016-07-28 12:35:27 UTC,Car parking,2016-07-28 12:35:27 UTC,51.406259,-2.558296,Whitchurch,"(51.406259, -2.558296)",7,401,20,1,75
Graffiti,https://www.fixmystreet.com/report/951845,2017-01-05 08:01:38 UTC,fixed - user,2017-01-05 08:05:20 UTC,Graffiti,2017-01-14 12:27:02 UTC,51.408547,-2.493912,Keynsham,"(51.408547, -2.493912)",16,142,3,1,46
No lighting near chandler close junior play space,https://www.fixmystreet.com/report/931818,2016-11-23 16:17:53 UTC,fixed - user,2016-11-23 17:50:31 UTC,Street lighting,2017-01-18 20:12:42 UTC,51.392442,-2.393664,Newbridge,"(51.392442, -2.393664)",29,314,8,1,18
Not working for pedestrians,https://www.fixmystreet.com/report/712031,2015-11-06 10:30:03 UTC,confirmed,2015-11-06 10:35:34 UTC,Traffic lights,2015-11-06 10:35:34 UTC,51.386462,-2.427975,Newton St Loe,"(51.386462, -2.427975)",9,68,22,1,28
Foliage overgrowing onto path,https://www.fixmystreet.com/report/844302,2016-06-20 13:29:31 UTC,fixed - user,2016-06-20 13:30:36 UTC,Pavements/footpaths,2016-07-18 14:05:28 UTC,51.292855,-2.473879,Midsomer Norton,"(51.292855, -2.473879)",11,282,25,1,8
Pot holes,https://www.fixmystreet.com/report/996745,2017-03-07 07:53:19 UTC,confirmed,2017-03-07 08:55:20 UTC,Potholes,2017-03-07 08:55:20 UTC,51.414583,-2.490866,Keynsham,"(51.414583, -2.490866)",16,152,3,1,45
Botched road resurfacing,https://www.fixmystreet.com/report/696286,2015-09-30 16:43:28 UTC,confirmed,2015-09-30 16:45:11 UTC,Roads/highways,2015-11-26 08:56:53 UTC,51.388784,-2.3664,Kingsmead,"(51.388784, -2.3664)",34,199,9,1,115
Pavement parking obstructing cycle path / footpath,https://www.fixmystreet.com/report/847037,2016-06-23 19:46:48 UTC,confirmed,2016-06-23 21:55:09 UTC,Pavements/footpaths,2016-06-23 21:55:09 UTC,51.403382,-2.553211,Whitchurch,"(51.403382, -2.553211)",7,403,20,1,75
Blocked Gullies along the length of Durley Hill to the High Street,https://www.fixmystreet.com/report/872832,2016-08-04 21:44:25 UTC,confirmed,2016-08-04 21:45:16 UTC,Roads/highways,2016-10-30 19:23:03 UTC,51.42026,-2.51104,Keynsham,"(51.42026, -2.51104)",24,171,1,1,49
Two potholes (northbound lane) shortly before the COOP at the junction of the A39 and A368 (BA2 9HN).,https://www.fixmystreet.com/report/996281,2017-03-06 16:14:41 UTC,confirmed,2017-03-06 16:21:24 UTC,Potholes,2017-03-06 16:21:24 UTC,51.352261,-2.48455,Marksbury,"(51.352261, -2.48455)",8,130,16,1,40
Cars blocking veiw of road,https://www.fixmystreet.com/report/683147,2015-08-31 15:56:29 UTC,confirmed,2015-08-31 16:00:11 UTC,Car parking,2015-12-22 12:54:55 UTC,51.400079,-2.345859,Lambridge,"(51.400079, -2.345859)",23,218,4,1,56
"Three potholes: two on brow of Lyncombe Hill, one just below.",https://www.fixmystreet.com/report/808345,2016-04-14 08:51:14 UTC,confirmed,2016-04-14 08:55:44 UTC,Potholes,2016-07-27 17:46:48 UTC,51.375104,-2.35461,Widcombe,"(51.375104, -2.35461)",33,573,12,1,111
Road Repairs needed,https://www.fixmystreet.com/report/833654,2016-06-01 21:44:02 UTC,fixed - user,2016-06-01 21:50:09 UTC,Potholes,2016-07-27 22:34:57 UTC,51.394392,-2.380416,Weston,"(51.394392, -2.380416)",20,550,5,1,107
Light has burned out. Not been lit for weeks.,https://www.fixmystreet.com/report/712312,2015-11-06 19:36:02 UTC,confirmed,2015-11-06 19:40:33 UTC,Street lighting,2015-12-09 11:33:28 UTC,51.379133,-2.389641,Westmoreland,"(51.379133, -2.389641)",32,525,13,1,102
Caravan dumped ob road,https://www.fixmystreet.com/report/943205,2016-12-16 10:11:18 UTC,confirmed,2016-12-16 11:51:22 UTC,Abandoned vehicles,2016-12-16 11:51:22 UTC,51.384714,-2.399606,Newbridge,"(51.384714, -2.399606)",29,320,8,1,17
Poorly repaired previous potholes breaking up again,https://www.fixmystreet.com/report/779141,2016-03-02 12:33:00 UTC,fixed - user,2016-03-02 12:35:24 UTC,Potholes,2016-03-30 17:47:46 UTC,51.407082,-2.488587,Keynsham,"(51.407082, -2.488587)",16,146,3,1,46
"Potholes on High Street, Bathford near Prospect Place",https://www.fixmystreet.com/report/753966,2016-01-26 18:27:26 UTC,confirmed,2016-01-26 18:30:11 UTC,Potholes,2016-01-26 18:30:11 UTC,51.398891,-2.293935,Bathford,"(51.398891, -2.293935)",1,43,10,1,26
Water running,https://www.fixmystreet.com/report/745735,2016-01-14 11:04:25 UTC,unconfirmed,,Roads/highways,2016-01-14 11:04:25 UTC,51.302173,-2.454807,Radstock,"(51.302173, -2.454807)",12,405,24,1,76
Plastic litter on the road side,https://www.fixmystreet.com/report/933126,2016-11-26 11:52:45 UTC,confirmed,2016-11-26 11:55:12 UTC,Other,2016-11-26 11:55:12 UTC,51.347287,-2.472847,Farmborough,"(51.347287, -2.472847)",8,127,16,1,40
Floodlights not working,https://www.fixmystreet.com/report/706674,2015-10-24 19:54:02 UTC,confirmed,2015-10-24 19:55:11 UTC,Parks/landscapes,2015-11-22 16:17:47 UTC,51.380109,-2.409827,Twerton,"(51.380109, -2.409827)",28,481,11,1,91
Christmas Trees Blocking Pavement,https://www.fixmystreet.com/report/953951,2017-01-08 14:10:42 UTC,fixed - user,2017-01-08 14:45:10 UTC,Rubbish (refuse and recycling),2017-02-05 16:12:23 UTC,51.375111,-2.352132,Widcombe,"(51.375111, -2.352132)",33,569,12,1,111
Vehicles speeding: residential lane/vehicles park on road blocking visibility,https://www.fixmystreet.com/report/895826,2016-09-14 12:30:30 UTC,confirmed,2016-09-14 12:35:31 UTC,Other,2016-09-14 12:35:31 UTC,51.320575,-2.508165,High Littleton,"(51.320575, -2.508165)",3,135,23,1,42
Road surafce is disintegrating along this stretch of road,https://www.fixmystreet.com/report/978297,2017-02-11 11:10:17 UTC,confirmed,2017-02-11 11:15:52 UTC,Roads/highways,2017-02-11 11:15:52 UTC,51.342179,-2.668462,Nempnett Thrubwell,"(51.342179, -2.668462)",4,88,21,1,32
Broken style,https://www.fixmystreet.com/report/929528,2016-11-19 17:00:52 UTC,fixed - user,2016-11-19 17:05:11 UTC,Other,2017-01-21 17:02:11 UTC,51.33922,-2.663317,Chew Stoke,"(51.33922, -2.663317)",6,84,21,1,31
Very large pothole- burst my tyre!,https://www.fixmystreet.com/report/956103,2017-01-11 13:24:10 UTC,confirmed,2017-01-11 13:26:02 UTC,Potholes,2017-01-11 13:28:59 UTC,51.390301,-2.481102,Compton Dando,"(51.390301, -2.481102)",8,123,16,1,41
Cycle Path closed for ages!,https://www.fixmystreet.com/report/858481,2016-07-12 17:46:59 UTC,confirmed,2016-07-12 17:50:09 UTC,Pavements/footpaths,2016-08-11 19:15:28 UTC,51.38422,-2.381403,Kingsmead,"(51.38422, -2.381403)",34,206,9,1,54
Nettles and crossing,https://www.fixmystreet.com/report/712032,2015-11-06 10:36:14 UTC,confirmed,2015-11-06 10:40:39 UTC,Pavements/footpaths,2015-11-06 10:40:39 UTC,51.383476,-2.428554,Newton St Loe,"(51.383476, -2.428554)",9,68,22,1,28
Dirty great big pothole,https://www.fixmystreet.com/report/969920,2017-02-01 08:32:16 UTC,confirmed,2017-02-01 08:36:00 UTC,Roads/highways,2017-02-01 08:36:00 UTC,51.395705,-2.351353,Walcot,"(51.395705, -2.351353)",36,484,6,1,93
Lots of potholes & dangerous.,https://www.fixmystreet.com/report/781094,2016-03-04 20:35:33 UTC,confirmed,2016-03-04 20:40:09 UTC,Potholes,2016-05-13 05:56:32 UTC,51.315445,-2.397257,Wellow,"(51.315445, -2.397257)",10,60,10,1,114
Numerous problems with road surface,https://www.fixmystreet.com/report/703141,2015-10-15 21:58:46 UTC,confirmed,2015-10-15 22:00:51 UTC,Potholes,2015-10-15 22:00:51 UTC,51.419773,-2.515723,Keynsham,"(51.419773, -2.515723)",24,161,1,1,48
"Pot hole, 10 inches or so",https://www.fixmystreet.com/report/914229,2016-10-18 21:25:11 UTC,fixed - user,2016-10-18 21:30:42 UTC,Potholes,2016-11-19 12:13:53 UTC,51.335105,-2.662759,Chew Stoke,"(51.335105, -2.662759)",6,84,21,1,31
Blocked road drain,https://www.fixmystreet.com/report/948869,2016-12-30 10:42:29 UTC,confirmed,2016-12-30 10:46:27 UTC,Roads/highways,2017-02-25 12:50:29 UTC,51.32266,-2.473,Timsbury,"(51.32266, -2.473)",14,459,16,1,87
Pothole / sunken drain,https://www.fixmystreet.com/report/817370,2016-04-30 17:44:28 UTC,confirmed,2016-04-30 17:45:15 UTC,Potholes,2016-04-30 17:45:15 UTC,51.358207,-2.315982,Monkton Combe,"(51.358207, -2.315982)",10,56,10,1,113
Multiple deep potholes at bottom of the hill causing danger for cyclists at busy junction,https://www.fixmystreet.com/report/1000473,2017-03-11 14:06:37 UTC,confirmed,2017-03-11 14:10:24 UTC,Potholes,2017-03-11 14:10:24 UTC,51.376764,-2.54184,Publow,"(51.376764, -2.54184)",7,398,20,1,74
Lack of crossing,https://www.fixmystreet.com/report/751604,2016-01-23 11:23:47 UTC,confirmed,2016-01-23 11:25:22 UTC,Roads/highways,2016-01-26 16:29:59 UTC,51.39826,-2.39583,Weston,"(51.39826, -2.39583)",20,543,5,1,108
Potholes need repairing,https://www.fixmystreet.com/report/750820,2016-01-21 23:36:42 UTC,confirmed,2016-01-21 23:40:12 UTC,Potholes,2016-01-21 23:40:12 UTC,51.43154,-2.401995,Charlcombe,"(51.43154, -2.401995)",1,47,10,1,25
Bin covered in graffiti,https://www.fixmystreet.com/report/951847,2017-01-05 08:04:34 UTC,confirmed,2017-01-05 08:05:42 UTC,Graffiti,2017-01-05 08:05:42 UTC,51.410167,-2.494492,Keynsham,"(51.410167, -2.494492)",16,156,3,1,45
Why is this lane not a resident's parking zone?,https://www.fixmystreet.com/report/920309,2016-10-31 13:10:40 UTC,confirmed,2016-10-31 13:15:22 UTC,Car parking,2017-03-02 09:22:03 UTC,51.392079,-2.386728,Weston,"(51.392079, -2.386728)",20,551,5,1,107
Council rubbish bin encroaches on path,https://www.fixmystreet.com/report/672635,2015-08-06 15:19:14 UTC,confirmed,2015-08-06 15:20:39 UTC,Pavements/footpaths,2015-11-02 16:00:54 UTC,51.382197,-2.393658,Newbridge,"(51.382197, -2.393658)",29,308,8,1,15
Poor road surface,https://www.fixmystreet.com/report/973837,2017-02-06 08:54:00 UTC,confirmed,2017-02-06 08:56:07 UTC,Roads/highways,2017-03-06 09:37:16 UTC,51.400461,-2.456561,Saltford,"(51.400461, -2.456561)",17,431,16,1,81
Drain blocked,https://www.fixmystreet.com/report/844984,2016-06-21 11:01:56 UTC,confirmed,2016-06-21 11:05:38 UTC,Other,2016-06-21 11:05:38 UTC,51.381953,-2.364031,Kingsmead,"(51.381953, -2.364031)",34,194,9,1,55
Potholes,https://www.fixmystreet.com/report/802166,2016-04-04 21:01:38 UTC,confirmed,2016-04-04 21:05:40 UTC,Potholes,2016-04-04 21:05:40 UTC,51.362511,-2.34394,Combe Down,"(51.362511, -2.34394)",19,109,18,1,37
Following a car crash - glass in road on the corner,https://www.fixmystreet.com/report/976762,2017-02-09 09:11:37 UTC,confirmed,2017-02-09 09:15:35 UTC,Street cleaning,2017-02-09 09:15:35 UTC,51.329128,-2.479502,Timsbury,"(51.329128, -2.479502)",14,455,16,1,88
Large pothole,https://www.fixmystreet.com/report/716070,2015-11-15 16:51:19 UTC,confirmed,2015-11-15 16:55:12 UTC,Potholes,2015-12-24 22:03:12 UTC,51.284395,-2.472135,Westfield,"(51.284395, -2.472135)",26,516,26,1,98
Kerbs appear to not have been cleaned this year.,https://www.fixmystreet.com/report/678797,2015-08-20 13:13:25 UTC,fixed - user,2015-08-20 13:15:17 UTC,Street cleaning,2015-10-09 15:00:08 UTC,51.379632,-2.389654,Westmoreland,"(51.379632, -2.389654)",32,522,13,1,102
Sunken drain and badly positioned drain,https://www.fixmystreet.com/report/993584,2017-03-03 11:08:02 UTC,confirmed,2017-03-03 11:10:57 UTC,Roads/highways,2017-03-03 11:10:57 UTC,51.39962,-2.285859,Bathford,"(51.39962, -2.285859)",1,43,10,1,26
Blocked gutter,https://www.fixmystreet.com/report/991568,2017-02-28 21:48:23 UTC,confirmed,2017-02-28 21:50:23 UTC,Roads/highways,2017-02-28 21:50:23 UTC,51.342189,-2.673542,Nempnett Thrubwell,"(51.342189, -2.673542)",4,88,21,1,32
Traffic lights not working,https://www.fixmystreet.com/report/691389,2015-09-19 08:29:15 UTC,confirmed,2015-09-19 08:35:10 UTC,Roads/highways,2016-02-19 12:55:24 UTC,51.357813,-2.315451,Monkton Combe,"(51.357813, -2.315451)",10,56,10,1,113
Pothole,https://www.fixmystreet.com/report/765461,2016-02-10 23:44:42 UTC,fixed - user,2016-02-10 23:45:40 UTC,Potholes,2016-03-04 22:44:28 UTC,51.293705,-2.475703,Midsomer Norton,"(51.293705, -2.475703)",11,279,25,1,8
Builders rubble reported to LA and recent addition of mattress,https://www.fixmystreet.com/report/783522,2016-03-08 15:15:08 UTC,fixed - user,2016-03-08 15:20:10 UTC,Flytipping,2016-04-05 16:37:20 UTC,51.36595,-2.648549,Chew Stoke,"(51.36595, -2.648549)",6,84,21,1,31
Incorrect sign installed,https://www.fixmystreet.com/report/862124,2016-07-18 20:11:30 UTC,confirmed,2016-07-18 20:15:21 UTC,Road traffic signs,2016-07-18 20:15:21 UTC,51.400059,-2.471023,Saltford,"(51.400059, -2.471023)",17,427,16,1,82
Car park light not working,https://www.fixmystreet.com/report/1002761,2017-03-14 16:51:08 UTC,confirmed,2017-03-14 16:55:36 UTC,Street lighting,2017-03-14 16:55:36 UTC,51.326489,-2.477379,Timsbury,"(51.326489, -2.477379)",14,460,16,1,87
Missed rubbish collection,https://www.fixmystreet.com/report/789220,2016-03-16 13:34:48 UTC,confirmed,2016-03-16 13:35:30 UTC,Rubbish (refuse and recycling),2016-03-16 13:35:30 UTC,51.409988,-2.512022,Keynsham,"(51.409988, -2.512022)",24,165,1,1,48
Hole depression in the road right by the traffice lights,https://www.fixmystreet.com/report/898330,2016-09-19 08:57:39 UTC,confirmed,2016-09-19 09:00:20 UTC,Potholes,2016-09-19 09:00:20 UTC,51.406129,-2.558236,Whitchurch,"(51.406129, -2.558236)",7,401,20,1,75
Fallen signpost,https://www.fixmystreet.com/report/726021,2015-12-07 14:29:22 UTC,fixed - user,2015-12-07 18:10:14 UTC,Road traffic signs,2016-01-30 15:06:55 UTC,51.290882,-2.462379,Midsomer Norton,"(51.290882, -2.462379)",26,284,25,1,8
Pothole in centre of w bound carriageway,https://www.fixmystreet.com/report/766912,2016-02-12 21:38:14 UTC,fixed - user,2016-02-12 21:40:32 UTC,Potholes,2016-03-13 19:54:30 UTC,51.351173,-2.618792,Chew Stoke,"(51.351173, -2.618792)",6,84,21,1,31
Dangerous road,https://www.fixmystreet.com/report/940121,2016-12-10 15:08:58 UTC,confirmed,2016-12-10 15:10:26 UTC,Roads/highways,2016-12-10 15:10:26 UTC,51.292574,-2.425243,Radstock,"(51.292574, -2.425243)",12,416,24,1,78
Fly tipping Queen Charton,https://www.fixmystreet.com/report/980636,2017-02-14 15:58:32 UTC,fixed - user,2017-02-14 21:10:15 UTC,Flytipping,2017-03-15 15:25:03 UTC,51.396772,-2.51897,Compton Dando,"(51.396772, -2.51897)",8,122,16,1,41
Street light M70 not working. Just glows red.,https://www.fixmystreet.com/report/958671,2017-01-15 21:30:09 UTC,fixed - user,2017-01-15 21:35:30 UTC,Street lighting,2017-01-17 19:20:38 UTC,51.284824,-2.472268,Westfield,"(51.284824, -2.472268)",26,516,26,1,98
Potholes,https://www.fixmystreet.com/report/969963,2017-02-01 09:09:49 UTC,confirmed,2017-02-01 09:26:55 UTC,Roads/highways,2017-03-01 10:46:49 UTC,51.36614,-2.319623,Combe Down,"(51.36614, -2.319623)",19,105,18,1,37
Conflict between 30mph signs and 20mph markings,https://www.fixmystreet.com/report/811490,2016-04-19 10:03:19 UTC,confirmed,2016-04-19 10:05:12 UTC,Road traffic signs,2016-04-19 10:05:12 UTC,51.297777,-2.446484,Radstock,"(51.297777, -2.446484)",12,409,24,1,76
"15"" hole in drain",https://www.fixmystreet.com/report/928957,2016-11-18 11:06:05 UTC,fixed - user,2016-11-18 11:10:12 UTC,Pavements/footpaths,2016-12-16 14:55:20 UTC,51.40899,-2.558848,Whitchurch,"(51.40899, -2.558848)",7,402,20,1,75
Two vehicles abandoned by garage. No tax and MOT,https://www.fixmystreet.com/report/721405,2015-11-26 23:53:36 UTC,confirmed,2015-11-26 23:55:30 UTC,Abandoned vehicles,2015-11-26 23:55:30 UTC,51.36164,-2.385229,Odd Down,"(51.36164, -2.385229)",30,576,19,1,62
A-Board + Chairs Blocking Pavement,https://www.fixmystreet.com/report/807408,2016-04-12 17:39:04 UTC,confirmed,2016-04-12 17:40:16 UTC,Pavements/footpaths,2016-04-12 17:40:16 UTC,51.376556,-2.354509,Widcombe,"(51.376556, -2.354509)",33,572,12,1,111
A couple of potholes,https://www.fixmystreet.com/report/827934,2016-05-21 11:17:41 UTC,confirmed,2016-05-21 11:20:17 UTC,Potholes,2016-05-21 11:20:17 UTC,51.392147,-2.388598,Newbridge,"(51.392147, -2.388598)",29,316,8,1,16
Wellow lane Hinton Charterhouse,https://www.fixmystreet.com/report/759814,2016-02-03 15:12:03 UTC,confirmed,2016-02-03 15:15:31 UTC,Rubbish (refuse and recycling),2016-02-03 15:15:31 UTC,51.321166,-2.343022,Hinton Charterhouse,"(51.321166, -2.343022)",10,55,10,1,114
Deeply sunken drain cover between lamposts number 10 and 11 in direction Bath to Bristol,https://www.fixmystreet.com/report/785721,2016-03-11 09:28:22 UTC,confirmed,2016-03-11 09:30:52 UTC,Roads/highways,2016-03-11 09:30:52 UTC,51.388639,-2.43402,Corston,"(51.388639, -2.43402)",8,124,16,1,41
Hole in the road,https://www.fixmystreet.com/report/670991,2015-08-03 12:00:34 UTC,confirmed,2015-08-03 12:05:11 UTC,Potholes,2015-08-03 12:05:11 UTC,51.297242,-2.533419,Farrington Gurney,"(51.297242, -2.533419)",3,133,23,1,43
Deep pothole - fix while road-laying equipment is nearby!,https://www.fixmystreet.com/report/842133,2016-06-16 11:12:30 UTC,fixed - user,2016-06-16 11:15:20 UTC,Potholes,2016-06-19 09:31:47 UTC,51.389672,-2.366571,Lansdown,"(51.389672, -2.366571)",21,246,7,1,2
Pothole / road breaking up,https://www.fixmystreet.com/report/982098,2017-02-16 12:49:46 UTC,confirmed,2017-02-16 12:50:20 UTC,Potholes,2017-02-16 12:50:20 UTC,51.40609,-2.558326,Whitchurch,"(51.40609, -2.558326)",7,404,20,1,75
Lamppost is falling over,https://www.fixmystreet.com/report/770738,2016-02-18 23:00:24 UTC,confirmed,2016-02-18 23:05:12 UTC,Street lighting,2016-02-18 23:05:12 UTC,51.404793,-2.458975,Saltford,"(51.404793, -2.458975)",17,426,16,1,80
Traffic from Bradford on Avon not allowing enough traffic through!,https://www.fixmystreet.com/report/758168,2016-02-01 15:58:58 UTC,confirmed,2016-02-01 16:01:05 UTC,Traffic lights,2016-02-01 16:01:05 UTC,51.357193,-2.314806,Monkton Combe,"(51.357193, -2.314806)",10,56,10,1,113
3 depressed manhole covers,https://www.fixmystreet.com/report/982093,2017-02-16 12:42:18 UTC,confirmed,2017-02-16 12:45:11 UTC,Potholes,2017-02-16 12:45:11 UTC,51.278439,-2.498061,Midsomer Norton,"(51.278439, -2.498061)",25,298,27,1,12
There is no zebra crossing by a bus stop located on a busy main road,https://www.fixmystreet.com/report/903905,2016-09-28 18:37:15 UTC,confirmed,2016-09-28 18:45:52 UTC,Pavements/footpaths,2016-10-29 23:33:47 UTC,51.4074,-2.51495,Keynsham,"(51.4074, -2.51495)",24,167,1,1,48
"Faulty light, flickering, on south side of cycle tunnel",https://www.fixmystreet.com/report/959353,2017-01-16 18:20:55 UTC,confirmed,2017-01-16 18:25:23 UTC,Flyposting,2017-01-16 18:25:23 UTC,51.369677,-2.366021,Lyncombe,"(51.369677, -2.366021)",18,254,17,1,3
"White Edge Line (no parking) junction of Churchways/Church Rd, Whitchurch",https://www.fixmystreet.com/report/765030,2016-02-10 14:27:35 UTC,fixed - user,2016-02-10 14:30:45 UTC,Roads/highways,2017-01-29 12:32:18 UTC,51.405958,-2.561242,Whitchurch,"(51.405958, -2.561242)",7,402,20,1,75
Very large pot hole. Popped my trye and a lady's behind me.,https://www.fixmystreet.com/report/806779,2016-04-11 19:21:29 UTC,confirmed,2016-04-11 19:25:35 UTC,Potholes,2016-04-11 19:25:35 UTC,51.431286,-2.402724,Charlcombe,"(51.431286, -2.402724)",1,47,10,1,25
Road surface worn through,https://www.fixmystreet.com/report/850762,2016-06-29 18:04:58 UTC,confirmed,2016-06-29 18:05:35 UTC,Potholes,2016-06-29 18:05:35 UTC,51.330177,-2.54617,Clutton,"(51.330177, -2.54617)",5,96,20,1,35
Rubbish Left Outside,https://www.fixmystreet.com/report/677820,2015-08-18 10:49:48 UTC,confirmed,2015-08-18 10:50:17 UTC,Rubbish (refuse and recycling),2015-08-18 10:50:17 UTC,51.373744,-2.400097,Southdown,"(51.373744, -2.400097)",27,451,15,1,86
Illegal Parking on Faded Double Yellow Lines,https://www.fixmystreet.com/report/785032,2016-03-10 11:35:27 UTC,confirmed,2016-03-10 11:40:29 UTC,Car parking,2016-03-10 11:40:29 UTC,51.363098,-2.34687,Combe Down,"(51.363098, -2.34687)",19,106,18,1,38
A lot of building rubbish dumped outside playground,https://www.fixmystreet.com/report/851693,2016-07-01 10:04:01 UTC,fixed - user,2016-07-01 10:40:09 UTC,Flytipping,2016-07-29 12:21:52 UTC,51.399857,-2.55351,Whitchurch,"(51.399857, -2.55351)",7,403,20,1,75
2 deep potholes,https://www.fixmystreet.com/report/973827,2017-02-06 08:48:54 UTC,fixed - user,2017-02-06 08:51:24 UTC,Potholes,2017-03-04 12:49:15 UTC,51.398801,-2.46111,Saltford,"(51.398801, -2.46111)",17,425,16,1,81
Degraded road surface affecting traffic flow,https://www.fixmystreet.com/report/990875,2017-02-28 07:52:14 UTC,confirmed,2017-02-28 08:10:12 UTC,Potholes,2017-02-28 08:10:12 UTC,51.347635,-2.468041,Farmborough,"(51.347635, -2.468041)",8,127,16,1,40
Large puddle left following work to rebuild bridge on 2 tunnels Greenway,https://www.fixmystreet.com/report/972259,2017-02-03 19:08:03 UTC,fixed - user,2017-02-03 19:10:37 UTC,Pavements/footpaths,2017-02-06 13:01:27 UTC,51.379514,-2.38516,Westmoreland,"(51.379514, -2.38516)",32,529,13,1,102
"Deep pothole, getting deeper",https://www.fixmystreet.com/report/864362,2016-07-22 05:52:55 UTC,unconfirmed,,Potholes,2016-07-22 05:52:55 UTC,51.405798,-2.491526,Keynsham,"(51.405798, -2.491526)",16,146,3,1,46
Overgrown hedges,https://www.fixmystreet.com/report/677488,2015-08-17 16:16:37 UTC,confirmed,2015-08-17 16:30:31 UTC,Pavements/footpaths,2015-09-14 17:34:59 UTC,51.312208,-2.519038,High Littleton,"(51.312208, -2.519038)",3,136,23,1,43
"The drains in Church Hill, Writhlington have not been cleaned out for years. The rain water causes flooding and erosion due to blocked Gulley's. If they were maintained, there would be less damage to the road, pot holes, etc.",https://www.fixmystreet.com/report/798239,2016-03-30 19:32:56 UTC,confirmed,2016-03-30 19:42:04 UTC,Roads/highways,2016-05-26 11:36:42 UTC,51.292868,-2.42539,Radstock,"(51.292868, -2.42539)",12,416,24,1,78
Large amounts of rubbish on road and verge,https://www.fixmystreet.com/report/925060,2016-11-10 08:33:12 UTC,confirmed,2016-11-10 08:35:19 UTC,Rubbish (refuse and recycling),2016-12-08 15:51:23 UTC,51.399184,-2.320858,Bathampton,"(51.399184, -2.320858)",1,31,10,1,24
Another spring busting pothole,https://www.fixmystreet.com/report/776850,2016-02-27 19:48:59 UTC,fixed - user,2016-02-27 19:50:09 UTC,Potholes,2016-03-26 21:14:05 UTC,51.339314,-2.505678,Farmborough,"(51.339314, -2.505678)",8,126,16,1,40
Pot hole,https://www.fixmystreet.com/report/714965,2015-11-12 14:22:58 UTC,confirmed,2015-11-12 14:30:14 UTC,Potholes,2015-11-12 14:30:14 UTC,51.381499,-2.377321,Westmoreland,"(51.381499, -2.377321)",32,538,13,1,103
Dangerous uneven pathways,https://www.fixmystreet.com/report/691640,2015-09-19 22:08:11 UTC,confirmed,2015-09-19 22:10:11 UTC,Pavements/footpaths,2015-10-18 09:33:01 UTC,51.322522,-2.478889,Timsbury,"(51.322522, -2.478889)",14,462,16,1,87
Builders waste on verge,https://www.fixmystreet.com/report/921408,2016-11-02 11:33:40 UTC,confirmed,2016-11-02 11:35:36 UTC,Flytipping,2016-11-02 11:35:36 UTC,51.376765,-2.624865,Chew Magna,"(51.376765, -2.624865)",6,79,21,1,31
Lots of broken glass at the mini roundabout,https://www.fixmystreet.com/report/825400,2016-05-16 16:58:33 UTC,confirmed,2016-05-16 17:05:09 UTC,Other,2016-05-16 17:05:09 UTC,51.412216,-2.493314,Keynsham,"(51.412216, -2.493314)",16,156,3,1,45
Graffiti under bridge,https://www.fixmystreet.com/report/832303,2016-05-30 17:44:05 UTC,fixed - user,2016-05-30 17:45:10 UTC,Graffiti,2016-07-09 18:34:54 UTC,51.383678,-2.373103,Kingsmead,"(51.383678, -2.373103)",34,205,9,1,115
Abandoned old Volvo parked on pavement for weeks,https://www.fixmystreet.com/report/994403,2017-03-04 12:47:53 UTC,confirmed,2017-03-04 12:50:59 UTC,Abandoned vehicles,2017-03-04 12:50:59 UTC,51.404557,-2.466174,Saltford,"(51.404557, -2.466174)",17,427,16,1,82
Signs are wrong here for cycle access,https://www.fixmystreet.com/report/943204,2016-12-16 10:09:05 UTC,confirmed,2016-12-16 11:51:30 UTC,Road traffic signs,2017-01-13 12:32:51 UTC,51.382478,-2.395121,Newbridge,"(51.382478, -2.395121)",29,308,8,1,15
"Very deep, spring busting pothole!",https://www.fixmystreet.com/report/757095,2016-01-31 11:26:09 UTC,fixed - user,2016-01-31 11:30:17 UTC,Potholes,2016-02-28 12:37:01 UTC,51.286276,-2.491994,Midsomer Norton,"(51.286276, -2.491994)",25,301,27,1,14
"Dark Lane, icey & slippery from railings & down lane.",https://www.fixmystreet.com/report/936053,2016-12-02 08:26:58 UTC,confirmed,2016-12-02 08:30:11 UTC,Other,2016-12-02 08:30:11 UTC,51.395091,-2.32106,Bathampton,"(51.395091, -2.32106)",1,30,10,1,27
Very poor road surface for over 100yds,https://www.fixmystreet.com/report/976875,2017-02-09 10:56:37 UTC,confirmed,2017-02-09 11:17:29 UTC,Roads/highways,2017-02-09 11:17:29 UTC,51.401056,-2.460853,Saltford,"(51.401056, -2.460853)",17,433,16,1,82
Overgrown hedges between Pagans Hill and Blackmoor,https://www.fixmystreet.com/report/912126,2016-10-14 13:48:21 UTC,confirmed,2016-10-14 13:50:12 UTC,Roads/highways,2016-10-14 13:50:12 UTC,51.364912,-2.644191,Chew Stoke,"(51.364912, -2.644191)",6,84,21,1,31
Poor traffic control.,https://www.fixmystreet.com/report/940122,2016-12-10 15:12:54 UTC,confirmed,2016-12-10 15:15:12 UTC,Roads/highways,2017-01-07 17:11:44 UTC,51.2904,-2.428591,Radstock,"(51.2904, -2.428591)",12,416,24,1,78
Green traffic light bulb broken,https://www.fixmystreet.com/report/726079,2015-12-07 16:15:41 UTC,fixed - user,2015-12-07 16:20:10 UTC,Traffic lights,2016-01-04 16:31:20 UTC,51.383676,-2.369967,Kingsmead,"(51.383676, -2.369967)",34,209,9,1,115
Abandoned and damaged blue car,https://www.fixmystreet.com/report/802094,2016-04-04 19:23:13 UTC,confirmed,2016-04-04 19:25:47 UTC,Abandoned vehicles,2016-04-04 19:25:47 UTC,51.341204,-2.599001,Stowey-Sutton,"(51.341204, -2.599001)",4,89,21,1,33
Cras are parked on the Lower Bristol Road outside of Enterprise Rent-a-Car,https://www.fixmystreet.com/report/808005,2016-04-13 16:12:28 UTC,confirmed,2016-04-13 16:15:27 UTC,Car parking,2016-06-20 15:12:38 UTC,51.386782,-2.405486,Twerton,"(51.386782, -2.405486)",28,477,11,1,91
Grossly misleading and outdated sign,https://www.fixmystreet.com/report/833664,2016-06-01 21:55:17 UTC,confirmed,2016-06-01 22:00:10 UTC,Road traffic signs,2016-06-29 23:30:39 UTC,51.388046,-2.367468,Kingsmead,"(51.388046, -2.367468)",34,200,9,1,115
Sunken mahole cover on the side from bath towards bristol,https://www.fixmystreet.com/report/1008663,2017-03-23 15:18:39 UTC,confirmed,2017-03-23 15:20:31 UTC,Roads/highways,2017-03-23 15:20:31 UTC,51.3908,-2.43806,Corston,"(51.3908, -2.43806)",8,125,16,1,41
Rubbish gathering,https://www.fixmystreet.com/report/888892,2016-09-02 10:45:42 UTC,fixed - user,2016-09-02 11:00:11 UTC,Street cleaning,2016-10-04 21:07:13 UTC,51.367316,-2.388748,Southdown,"(51.367316, -2.388748)",27,447,15,1,84
All New LED Street Lights Have Failed,https://www.fixmystreet.com/report/877537,2016-08-12 21:46:59 UTC,confirmed,2016-08-12 21:50:11 UTC,Street lighting,2016-08-12 21:50:11 UTC,51.373815,-2.400697,Southdown,"(51.373815, -2.400697)",27,452,15,1,86
Broken/vandalised Greenway signage,https://www.fixmystreet.com/report/784636,2016-03-09 20:01:38 UTC,confirmed,2016-03-09 20:05:48 UTC,Pavements/footpaths,2016-04-07 22:44:08 UTC,51.292278,-2.461442,Radstock,"(51.292278, -2.461442)",12,421,24,1,76
Red to Green Timing Problems,https://www.fixmystreet.com/report/956082,2017-01-11 12:58:23 UTC,confirmed,2017-01-11 13:00:18 UTC,Traffic lights,2017-01-11 13:00:18 UTC,51.358167,-2.315659,Monkton Combe,"(51.358167, -2.315659)",10,56,10,1,113
Oversized vehicles using road,https://www.fixmystreet.com/report/957501,2017-01-13 18:47:08 UTC,confirmed,2017-01-13 19:10:14 UTC,Roads/highways,2017-02-10 21:30:35 UTC,51.362607,-2.342363,Combe Down,"(51.362607, -2.342363)",19,113,18,1,37
Road surface is breaking up right on the bend so it's becoming dangerous,https://www.fixmystreet.com/report/973834,2017-02-06 08:52:11 UTC,confirmed,2017-02-06 08:56:14 UTC,Potholes,2017-03-06 09:38:03 UTC,51.399952,-2.470766,Saltford,"(51.399952, -2.470766)",17,427,16,1,82
