Ref,Description,LocationDescription,Status,Start,End,OrganisationName,TrafficType,Easting,Northing,Latitude,Longitude,Location,Ward,Lower Layer Super Output Areas (LSOA),Output Areas (OA),Middle Layer Super Output Areas (MSOA),Boundary
400256,Drainage Works,The Street whole length,Completed,18/07/2016 12:00:00 AM,01/08/2016 12:00:00 AM,B&NES - Contractor Skanska,Two-Way Signals,355845,156827,51.308835591805241,-2.634845215724995,"(51.30883559180524, -2.634845215724995)",2,6,274,21,1
30015338,leak on sp,",THE LAYS LODGE,",Completed,29/07/2016 11:00:36 AM,04/08/2016 12:00:00 AM,Bristol Water,Signing Only,364303.52,167786.73,51.407973192398771,-2.514606336011998,"(51.40797319239877, -2.514606336011998)",24,48,170,1,1
30015285,Repair Service,6,Completed,29/07/2016 12:00:00 AM,02/08/2016 12:00:00 AM,WESSEX WATER (Bath Operations),Signing Only,373776.72,164368.57,51.377758174984656,-2.378157800129371,"(51.377758174984656, -2.378157800129371)",31,63,347,14,1
30009926,REPLACE 1051M OF 6IN CI WITH 1051M OF 125MM PE AND REPLACE OR TRANSFER APPROX 18 SERVICES.,Outside of greenbank,Completed,01/07/2016 12:00:00 AM,26/08/2016 12:00:00 AM,WGA - BRISTOL & BATH,Two-Way Signals,376143,168078,51.411216238482538,-2.344410862437946,"(51.41121623848254, -2.3444108624379463)",1,25,51,10,1
30009937,"REPLACE 604M OF 8IN, 6IN, 4IN CI WITH 604M OF 75MM, 180MM, 125MM PE AND REPLACE OR TRANSFER APPROX 35 SERVICES",Junction of English combe lane,Completed,25/07/2016 12:00:00 AM,26/08/2016 12:00:00 AM,WGA - BRISTOL & BATH,Two-Way Signals,372701,163064,51.365977270501091,-2.393512482539004,"(51.36597727050109, -2.393512482539004)",27,84,448,15,1
202691,Installation of ATC LOOPS evening work AFTER 1900 hours.,South of Wessex Water office at access to 2 public right of ways,Completed,27/07/2016 12:00:00 AM,27/07/2016 12:00:00 AM,Bath and North East Somerset Council,Two-Way Signals,377934.1,162785.3,51.363699833511021,-2.318327776600135,"(51.36369983351102, -2.3183277766001353)",19,37,105,18,1
30015342,Repair Service,The Tynings,Completed,01/11/2016 12:00:00 AM,03/11/2016 12:00:00 AM,WESSEX WATER (Bath Operations),Road Closure,378145,169244,51.421781384825081,-2.315698358314425,"(51.42178138482508, -2.3156983583144246)",1,25,34,10,1
30006760,REPLACE 127M OF 6IN CI WITH 127M OF 125MM PE AND REPLACE OR TRANSFER APPROX 18 SERVICES,Outside of 1 long hay close,Completed,01/08/2016 12:00:00 AM,09/09/2016 12:00:00 AM,WGA - BRISTOL & BATH,Give and Take,372895,164292,51.377028105919969,-2.390819975068608,"(51.37702810591997, -2.390819975068608)",28,89,464,11,1
30015253,NEW GAS SERVICE 1M PUBLIC 9M PRIVATE,O/S 19,Completed,15/08/2016 12:00:00 AM,18/08/2016 12:00:00 AM,BRISTOL CENTRAL,Give and Take,361050,167724,51.407194374459607,-2.561373817185799,"(51.40719437445961, -2.561373817185799)",7,75,402,20,1
30014246,Safe Access to Underground BT footway and carriageway boxes for fibre cabling and jointing works in existing duct. Required for new customer connection,A36 FROM J A366 TO J B3108 JCN OF IFORD LANE BATH AND NORTH EAST SOMERSET BA2 7TQ,Completed,11/08/2016 12:00:00 AM,11/08/2016 12:00:00 AM,BT,Road Closure,378465.5,158397.5,51.324267117645078,-2.310428329992347,"(51.32426711764508, -2.310428329992347)",10,113,54,10,1
30009956,REPLACE 96M OF 4IN SI WITH 96M OF 75MM PE AND REPLACE OR TRANSFER APPROX 10 SERVICES,JUNC WANSBECK ROAD/WINDRUSH ROAD - JUNC WANSBECK/TORRIDGE ROAD,Completed,01/04/2016 12:00:00 AM,31/03/2017 12:00:00 AM,WGA - BRISTOL & BATH,Give and Take,366209,167674,51.407076740657111,-2.487201071262341,"(51.40707674065711, -2.4872010712623407)",16,46,143,3,1
30015280,leak,",3 RED POST COURT",Completed,26/07/2016 10:28:49 AM,01/08/2016 12:00:00 AM,Bristol Water,Signing Only,369853.52,157108.73,51.312286144452408,-2.433906582441165,"(51.31228614445241, -2.433906582441165)",15,73,378,22,1
30014558,NEW GAS CONNECTION SERVICE 2M PUBLIC 23M PRIVATE,O/S FARMBOROUGH VC PRIMARY SCHOOL,Completed,08/08/2016 12:00:00 AM,12/08/2016 12:00:00 AM,BATH,Give and Take,365817,160594,51.343394596193377,-2.492153194597492,"(51.34339459619338, -2.4921531945974915)",8,40,128,16,1
30015130,REPLACING OVERHEAD CONDUCTORS,O/S HOMESTEAD,Completed,20/07/2016 12:00:00 AM,22/07/2016 12:00:00 AM,Melksham Depot,Stop/Go Boards,377128,158356,51.323841481865621,-2.329619845991874,"(51.32384148186562, -2.329619845991874)",10,113,54,10,1
30012476,REPLACE 2M OF 8IN CI WITH 2M OF 180MM PE AND REPLACE OR TRANSFER ANY AFFECTED SERVICES.,O/S THREE GABLES - O/S THREE GABLES,Completed,25/07/2016 12:00:00 AM,12/08/2016 12:00:00 AM,WGA - BRISTOL & BATH,Road Closure,374608,163336,51.368511807671631,-2.366140306557641,"(51.36851180767163, -2.366140306557641)",18,5,256,17,1
30014959,Tree trimming - No excavation,Outside Stegar,Completed,27/07/2016 12:00:00 AM,27/07/2016 12:00:00 AM,1167 SHEP/WELL M&R,Multi-Way Signals,368128,154734,51.290839415938379,-2.458449464047094,"(51.29083941593838, -2.4584494640470944)",26,99,521,26,1
30015355,Urgent excavation in highway to locate and repair LV cable fault.,o/s 1,Completed,29/07/2016 08:45:00 PM,09/08/2016 12:00:00 AM,1163 NE MENDIP CONSTRUCTION,Give and Take,374542,162226,51.35852828579975,-2.367008530543258,"(51.35852828579975, -2.3670085305432575)",18,4,263,17,1
30010963,To facilitate works demolish and reconstruct the adjacaent SAD Intersects bridge as part of the Great  Western Electrification programme.  Bellotts Road bridge needs to be closed to provide a safety zone during lifting opperations and to position the crane to undertake lifting works.,At Road over rail bridge named: Hayters,Completed,09/01/2016 12:00:00 AM,01/11/2016 12:00:00 AM,NR-WESTERN Electricfication,Road Closure,373314,164584,51.379673544998596,-2.384822149624986,"(51.379673544998596, -2.3848221496249864)",32,101,527,13,1
30015187,Repair Service Leak,"Entrance to Bathampton Manor, Garden House & Manor Barn",Completed,19/07/2016 04:30:00 PM,21/07/2016 12:00:00 AM,WESSEX WATER (Bath Operations),Signing Only,377560.82,166805.19,51.399829983132541,-2.323944511955677,"(51.39982998313254, -2.323944511955677)",1,24,31,10,1
30015374,Repair Service,8,Completed,04/08/2016 12:00:00 AM,08/08/2016 12:00:00 AM,WESSEX WATER (Bath Operations),Signing Only,372598,167073,51.402018926247877,-2.395302579493712,"(51.40201892624788, -2.395302579493712)",20,105,556,5,1
30015385,leak,17,Completed,02/08/2016 10:41:57 AM,08/08/2016 12:00:00 AM,Bristol Water,Signing Only,366040,166613,51.397526856716546,-2.489528774558371,"(51.397526856716546, -2.4895287745583707)",16,44,151,3,1
30009961,REPLACE 153M OF 4IN DI WITH 153M OF 75MM PE AND REPLACE OR TRANSFER APPROX 15 SERVICES,S/O NO. 24 TEVIOT ROAD - REAR NO. 9 TEVIOT ROAD,Completed,01/04/2016 12:00:00 AM,31/03/2017 12:00:00 AM,WGA - BRISTOL & BATH,Give and Take,366463,167906,51.409177848678624,-2.483571474645609,"(51.409177848678624, -2.483571474645609)",16,47,145,3,1
600069,"Please carry out the necessary work to replace the aluminium lighting column with  a 6 metre tubular galvanised steel column,",KEYNSHAMBATH AND NORTH EAST SOMERSET,Completed,01/08/2016 12:00:00 AM,03/08/2016 12:00:00 AM,SSE Street Lighting,Signing Only,364680,167977,51.409707608109485,-2.509212828281147,"(51.409707608109485, -2.509212828281147)",24,48,165,1,1
202607,Upgrade of existing signalised junction,George Street//Broad St/The Paragon,Completed,24/07/2016 12:00:00 AM,01/08/2016 12:00:00 AM,Bath and North East Somerset Council,Multi-Way Signals,374988.75,165189.55,51.385194931641237,-2.360802085268981,"(51.38519493164124, -2.3608020852689813)",35,22,4,7,1
202648,St Barnabas Church wall repair with temp 2 way signals 0930-1530 outside peak hours.,"St Barnabas Church, A37 Main Road, Temple Cloud",Completed,18/07/2016 12:00:00 AM,19/08/2016 12:00:00 AM,Bath and North East Somerset Council,Two-Way Signals,362224.76,157948.73,51.31938200483809,-2.543443381623427,"(51.31938200483809, -2.5434433816234274)",2,7,268,20,1
30012525,Renovations- snagging,23m to the rhs of entrance to The Linney 10mm,Completed,29/07/2016 12:00:00 AM,02/08/2016 12:00:00 AM,Bristol Water,Road Closure,355895.98,157226.84,51.312434598680753,-2.634163466339836,"(51.31243459868075, -2.634163466339836)",2,6,274,21,1
30015249,Repair/Replace Manhole Cover/Frame/Chamber - Repair Dangerous Cover,20m south west of Junct Snow Hill,Completed,22/07/2016 09:00:00 AM,26/07/2016 12:00:00 AM,WESSEX WATER (Northern Waste R&M),Signing Only,375447.26,166030.72,51.392778395355521,-2.354271832608982,"(51.39277839535552, -2.354271832608982)",36,94,486,6,1
30015245,Poke out from existing chamber with 1m of Ducting for 3rd party interconnect,Junction with Culverhay,Completed,30/07/2016 12:00:00 AM,03/08/2016 12:00:00 AM,001 Hibernia Atlantic UK Limited,Give and Take,364681,164577,51.379137348447713,-2.50885900650235,"(51.37913734844771, -2.50885900650235)",8,41,123,16,1
202639,REVISED DATE - Carriageway micro asphalt surfacing work - 1 day approx.,Odins Road,Completed,03/08/2016 12:00:00 AM,03/08/2016 12:00:00 AM,Bath and North East Somerset Council,Road Closure,373541.46,162351.94,51.359614749089026,-2.381387115981391,"(51.359614749089026, -2.381387115981391)",30,19,328,19,1
30015366,TRACE AND REPAIR GAS ESCAPE AND PERMANENTLY REINSTATE WHERE POSSIBLE.,BULA COTTAGE,Completed,01/08/2016 12:40:00 PM,05/08/2016 12:00:00 AM,BATH,Give and Take,366933,158871,51.327968652502335,-2.475970796694332,"(51.327968652502335, -2.4759707966943325)",14,88,457,16,1
30015382,Large joint hole in grass verge to locate 33kv cable,Outside Cricket Pavilion,Completed,07/09/2016 12:00:00 AM,20/09/2016 12:00:00 AM,1167 SHEP/WELL M&R,Signing Only,375404,164680,51.380631560110317,-2.354799571508312,"(51.38063156011032, -2.3547995715083125)",33,111,564,12,1
30014463,To lift and relay slabs in the f/way,"OPP 4, PRIOR PARK ROAD",Completed,20/07/2016 12:00:00 AM,21/07/2016 12:00:00 AM,BT,Signing Only,375563,164210,51.376412463995784,-2.352482516270146,"(51.376412463995784, -2.352482516270146)",33,111,569,12,1
30009926,REPLACE 1051M OF 6IN CI WITH 1051M OF 125MM PE AND REPLACE OR TRANSFER APPROX 18 SERVICES.,Junction of innox Lane,Completed,01/07/2016 12:00:00 AM,26/08/2016 12:00:00 AM,WGA - BRISTOL & BATH,Two-Way Signals,376150,167790,51.40862699964601,-2.344290752723306,"(51.40862699964601, -2.3442907527233063)",1,25,51,10,1
30015186,leaking cst,o/s 4  c/l f/p,Completed,19/07/2016 04:23:42 PM,25/07/2016 12:00:00 AM,Bristol Water,Signing Only,368992.13,149385.47,51.24279572098942,-2.445592107324086,"(51.24279572098942, -2.4455921073240856)",,,,,
30015097,New Connection,Entrance to 38,Completed,18/07/2016 12:00:00 AM,20/07/2016 12:00:00 AM,WESSEX WATER (Bath Operations),Signing Only,374312.91,163335.64,51.368495239137147,-2.370379117697138,"(51.36849523913715, -2.3703791176971385)",18,5,257,17,1
30015189,Excavate footway to add swept tee,Outside 1,Completed,24/07/2016 12:00:00 AM,26/07/2016 12:00:00 AM,NATIONAL NOTICING DEPARTMENT,No Carriageway Incursion,372637,163041,51.3657673739595,-2.39442998307138,"(51.3657673739595, -2.39442998307138)",27,84,448,15,1
30015381,Large joint hole in tarmac footway on 33kv cable to locate pilot cables.  Shoring will be required.,Outside 11 and 12,Completed,07/09/2016 12:00:00 AM,20/09/2016 12:00:00 AM,1167 SHEP/WELL M&R,Signing Only,375419,164554,51.379499286920215,-2.354575285757321,"(51.379499286920215, -2.3545752857573214)",33,111,564,12,1
30006781,"To ensure compliance with the Overhead Line Electrification requirements, works to existing bridge parapets will include raising the height of the parapets and providing anti-climb measures. DETAIL TO CHANGE ONCE A DESIGN HAS BEEN SENT TO LISTED BUILDINGS. THIS IS A BYWAY OPEN TO ALL TRAFFIC (BOAT).",At Road over rail bridge named: Clay Lane,Completed,27/05/2016 12:00:00 AM,19/09/2016 12:00:00 AM,NR-WESTERN Electricfication,Road Closure,367715,167987,51.409979065161089,-2.465578729983822,"(51.40997906516109, -2.4655787299838217)",17,82,427,16,1
30006177,WORK TO OBTAIN 4X CORE SAMPLES FROM BRIDGE PARAPETS USING HALF OF BOTH FOOTWAYSWORKS TO BE DONE OFF PEAK,Beckford road bridge over railway,Completed,21/07/2016 12:00:00 AM,26/09/2016 12:00:00 AM,NR-WESTERN Electricfication,Give and Take,375838,165457,51.387636665233586,-2.348616810462906,"(51.387636665233586, -2.3486168104629055)",36,95,496,6,1
202687,"To lift up a pavement slab and install a membrane for basement storage, moving railing bases to original position and re-paving basement with pennant slabs to be undertaken by DAVIES PSS Ltd.",11 Widcombe Crescent,Completed,18/07/2016 12:00:00 AM,28/07/2016 12:00:00 AM,Bath and North East Somerset Council,Signing Only,375744.46,164043.64,51.374924459006401,-2.349864058667433,"(51.3749244590064, -2.349864058667433)",33,110,574,12,1
600066,"Replace removed column with new 10m column, c/w 68W LED lantern.",KEYNSHAMBATH AND NORTH EAST SOMERSET,Completed,07/08/2016 12:00:00 AM,07/08/2016 12:00:00 AM,SSE Street Lighting,Two-Way Signals,367472,167667,51.407087910862138,-2.469042974562904,"(51.40708791086214, -2.4690429745629037)",17,82,427,16,1
30006760,REPLACE 127M OF 6IN CI WITH 127M OF 125MM PE AND REPLACE OR TRANSFER APPROX 18 SERVICES,Junction of high field close,Completed,01/08/2016 12:00:00 AM,09/09/2016 12:00:00 AM,WGA - BRISTOL & BATH,Give and Take,372882,164302,51.377117396866502,-2.391007515037863,"(51.3771173968665, -2.391007515037863)",28,89,464,11,1
30015216,Urgent excavation in highway to locate and repair LV cable fault.,outside 3,Completed,20/07/2016 10:30:00 PM,28/07/2016 12:00:00 AM,1163 NE MENDIP CONSTRUCTION,Give and Take,367176,159034,51.329448381334167,-2.472498405055085,"(51.32944838133417, -2.4724984050550853)",14,88,457,16,1
30012473,REPLACE 4M OF 100MM DI WITH 4M OF 125MM PE AND REPLACE OR TRANSFER ANY AFFECTED SERVICES.,J/O HARLEY STREET & JULIAN ROAD,Completed,06/05/2016 12:00:00 AM,31/03/2017 12:00:00 AM,WGA - BRISTOL & BATH,Give and Take,374653,165523,51.388178168065011,-2.365650652698373,"(51.38817816806501, -2.365650652698373)",34,115,199,9,1
30015279,NEW GAS SERVICE 3M PUBLIC 13M PRIVATE,O/S 5,Completed,15/08/2016 12:00:00 AM,19/08/2016 12:00:00 AM,BATH,Give and Take,368811,153970,51.284007855184406,-2.448588159761484,"(51.284007855184406, -2.4485881597614845)",12,79,419,24,1
30012171,REPLACE 336M OF 4IN SI WITH 336M OF 75MM PE AND REPLACE OR TRANSFER APPROX 35 SERVICES.,8,Completed,18/03/2016 12:00:00 AM,29/07/2016 12:00:00 AM,WGA - BRISTOL & BATH,Give and Take,374563,166826,51.399889972168808,-2.367037823608835,"(51.39988997216881, -2.367037823608835)",21,1,233,7,1
30015180,Tree trimming - No excavation,Outside 22 to Outside Carranne and Outside 32,Completed,15/08/2016 12:00:00 AM,15/08/2016 12:00:00 AM,1167 SHEP/WELL M&R,Stop/Go Boards,369024,155049,51.293721369405397,-2.445628104998867,"(51.2937213694054, -2.4456281049988666)",12,77,408,24,1
30009937,"REPLACE 604M OF 8IN, 6IN, 4IN CI WITH 604M OF 75MM, 180MM, 125MM PE AND REPLACE OR TRANSFER APPROX 35 SERVICES",Opposite no 20,Completed,25/07/2016 12:00:00 AM,26/08/2016 12:00:00 AM,WGA - BRISTOL & BATH,Two-Way Signals,372665,163151,51.366757788322509,-2.394036294476325,"(51.36675778832251, -2.3940362944763254)",27,84,448,15,1
30015215,Urgent excavation in highway to locate and repair LV cable fault.,Adjacent Abbey Tower,Completed,20/07/2016 04:00:00 PM,28/07/2016 12:00:00 AM,1163 NE MENDIP CONSTRUCTION,Signing Only,375138,164721,51.38098856772298,-2.358624440861329,"(51.38098856772298, -2.3586244408613286)",35,20,12,7,1
30012171,REPLACE 336M OF 4IN SI WITH 336M OF 75MM PE AND REPLACE OR TRANSFER APPROX 35 SERVICES.,24,Completed,18/03/2016 12:00:00 AM,29/07/2016 12:00:00 AM,WGA - BRISTOL & BATH,Give and Take,374582,166826,51.399890827757957,-2.366764710229551,"(51.39989082775796, -2.3667647102295506)",21,1,233,7,1
30015265,Urgent excavation in highway to locate and repair HV cable fault.,Adjacent Longridge,Completed,25/07/2016 09:30:00 AM,02/08/2016 12:00:00 AM,1163 NE MENDIP CONSTRUCTION,Give and Take,376126,162125,51.357689243246639,-2.344253153324819,"(51.35768924324664, -2.3442531533248188)",19,37,103,18,1
30015295,Repair Service,"Junct Kingsmead West, Rear of Kingsmead Leisure Complex, James Street West",Completed,31/07/2016 12:00:00 AM,03/08/2016 12:00:00 AM,WESSEX WATER (Bath Operations),Signing Only,374645.08,164664.82,51.380461522553482,-2.365702919148452,"(51.38046152255348, -2.3657029191484518)",34,55,195,9,1
30015166,Repair Service Leak,44,Completed,18/07/2016 02:30:00 PM,20/07/2016 12:00:00 AM,WESSEX WATER (Bath Operations),Signing Only,372843.08,163674.47,51.371473125433411,-2.391518523402862,"(51.37147312543341, -2.391518523402862)",27,83,440,15,1
30015348,Repair Service,6,Completed,03/08/2016 12:00:00 AM,05/08/2016 12:00:00 AM,WESSEX WATER (Bath Operations),Signing Only,377083,158146,51.321951427967051,-2.330252053868576,"(51.32195142796705, -2.3302520538685765)",10,114,55,10,1
30015090,Section 81/Defect - 19:00 Work Start,Side of 6 Vane Street,Completed,19/07/2016 12:00:00 AM,21/07/2016 12:00:00 AM,WESSEX WATER (Bath Operations),Multi-Way Signals,375644.08,165040,51.383878892679419,-2.351374815151532,"(51.38387889267942, -2.3513748151515323)",22,30,74,12,1
30009927,"REPLACE 151M OF 6IN, 4IN CI WITH 151M OF 75MM, 125MM PE AND REPLACE OR TRANSFER APPROX 12 SERVICES.",Smallmans,Completed,20/06/2016 12:00:00 AM,26/08/2016 12:00:00 AM,WGA - BRISTOL & BATH,Road Closure,375921,168390,51.414012136052953,-2.347624062613878,"(51.41401213605295, -2.3476240626138782)",1,25,51,10,1
30015175,Locate and excavate 1 blockage in existing duct in f/way blocks,"OPP 7, LONDON ROAD",Completed,25/07/2016 12:00:00 AM,27/07/2016 12:00:00 AM,BT,Signing Only,375666.37,165996.68,51.392481810170146,-2.351120398865029,"(51.392481810170146, -2.351120398865029)",36,96,492,6,1
30015334,URGENT RELAY AFTER SERVICE ALTER.,1,Completed,29/07/2016 08:15:00 AM,04/08/2016 12:00:00 AM,FROME,Give and Take,373448,164835,51.381936709176166,-2.382915678118939,"(51.381936709176166, -2.382915678118939)",32,103,579,13,1
30009951,"REPLACE 260M OF 2IN, 100MM ST, DI WITH 260M OF 40MM, 63MM, 75MM PE AND REPLACE OR TRANSFER APPROX 33 SERVICES",O/S NO. 5 DEVERON GROVE - APPROX. 20M FROM O/S NO. 42 MINSMERE ROAD,Completed,01/04/2016 12:00:00 AM,31/03/2017 12:00:00 AM,WGA - BRISTOL & BATH,Give and Take,366353,167480,51.405341022833142,-2.485112399910948,"(51.40534102283314, -2.485112399910948)",16,47,144,3,1
30015310,leaking stop tap,"BARN CONVERSION,CONYGAR FARM,",Completed,27/07/2016 02:03:53 PM,02/08/2016 12:00:00 AM,Bristol Water,Signing Only,365511.88,167676.34,51.407055670455605,-2.497223374610451,"(51.407055670455605, -2.4972233746104506)",37,53,184,2,1
30006760,REPLACE 127M OF 6IN CI WITH 127M OF 125MM PE AND REPLACE OR TRANSFER APPROX 18 SERVICES,1 Springfield,Completed,01/08/2016 12:00:00 AM,09/09/2016 12:00:00 AM,WGA - BRISTOL & BATH,Give and Take,372866,164361,51.377647124219003,-2.391241915783242,"(51.377647124219, -2.3912419157832425)",28,89,464,11,1
30015252,Repair Service,14,Completed,27/07/2016 12:00:00 AM,29/07/2016 12:00:00 AM,WESSEX WATER (Bath Operations),Signing Only,378982.26,166808.82,51.399917361452438,-2.303512299414907,"(51.39991736145244, -2.303512299414907)",1,26,44,10,1
87601,"To ensure compliance with the Overhead Line Electrification requirements, works to existing bridge parapets will include raising the height of the parapets and providing anti-climb measures.",At Road over rail bridge named: Hampton Mill Lane,Completed,31/10/2016 12:00:00 AM,09/01/2017 12:00:00 AM,NR-WESTERN Electricfication,Two-Way Signals,377649,166577,51.39778171739696,-2.322662526294151,"(51.39778171739696, -2.3226625262941507)",1,27,30,10,1
30015235,Excavate FW to install earthing coil,Jnc of St. Lodoc Road and Bristol Road,Completed,08/08/2016 12:00:00 AM,10/08/2016 12:00:00 AM,NATIONAL NOTICING DEPARTMENT,No Carriageway Incursion,365018,168903,51.418054525214302,-2.50444500625946,"(51.4180545252143, -2.5044450062594605)",24,49,171,1,1
30009927,"REPLACE 151M OF 6IN, 4IN CI WITH 151M OF 75MM, 125MM PE AND REPLACE OR TRANSFER APPROX 12 SERVICES.",Outside of upper Swainswick house,Completed,20/06/2016 12:00:00 AM,26/08/2016 12:00:00 AM,WGA - BRISTOL & BATH,Road Closure,375874,168415,51.414234914121231,-2.348301577820529,"(51.41423491412123, -2.348301577820529)",1,25,51,10,1
202698,Surface Dressing works - REVISED DATES,"Whole length of Collier's Lane, Newton St Loe",Completed,20/08/2016 12:00:00 AM,21/08/2016 12:00:00 AM,Bath and North East Somerset Council,Road Closure,370258.4,164117.61,51.37532754941995,-2.428685704209768,"(51.37532754941995, -2.428685704209768)",9,28,68,22,1
30015091,Section 81/Defect - 19:00 Work Start,Junct Bathwick Hill,Completed,19/07/2016 12:00:00 AM,21/07/2016 12:00:00 AM,WESSEX WATER (Bath Operations),Multi-Way Signals,375650.08,165061.82,51.384075345303295,-2.351290101948548,"(51.384075345303295, -2.351290101948548)",22,30,74,12,1
30012525,Renovations- snagging,16m to the rhs of entrance to The Linney 10mm,Completed,29/07/2016 12:00:00 AM,02/08/2016 12:00:00 AM,Bristol Water,Signing Only,355903.19,157215.69,51.31233490705484,-2.634058645973672,"(51.31233490705484, -2.6340586459736723)",2,6,274,21,1
30015289,Excavate footway to add swept tee,Junction of Rock Road,Completed,29/07/2016 12:00:00 AM,02/08/2016 12:00:00 AM,NATIONAL NOTICING DEPARTMENT,No Carriageway Incursion,365412,168450,51.414005745682033,-2.498735004305105,"(51.41400574568203, -2.498735004305105)",24,49,158,1,1
30014996,Rolling programme of underground cabling works in Carriageway & Footway,Outside 187,Completed,25/07/2016 12:00:00 AM,05/08/2016 12:00:00 AM,BT,Stop/Go Boards,377792,167465.75,51.405778535530899,-2.320662996155854,"(51.4057785355309, -2.3206629961558543)",1,23,32,10,1
30015269,Tree trimming - No excavation,Outside 6 Cholwell Cottages to junction of Upper Bristol Road,Completed,23/08/2016 12:00:00 AM,23/08/2016 12:00:00 AM,1167 SHEP/WELL M&R,Two-Way Signals,361868,158666,51.325807337285958,-2.548639453355839,"(51.32580733728596, -2.548639453355839)",2,7,269,20,1
30015037,Lift manhole cover on CSO and install a monitor,46,Completed,21/07/2016 12:00:00 AM,25/07/2016 12:00:00 AM,WESSEX WATER (Engineering Northern WECS),Stop/Go Boards,368648,167431,51.405032432900235,-2.45211529013062,"(51.405032432900235, -2.4521152901306196)",17,80,426,16,1
30015240,Repair Service,Opp Foxdale,Completed,26/07/2016 12:00:00 AM,28/07/2016 12:00:00 AM,WESSEX WATER (Bath Operations),Signing Only,376722,164443,51.378556425204238,-2.3358464158976,"(51.37855642520424, -2.3358464158976)",22,29,77,12,1
30012171,REPLACE 336M OF 4IN SI WITH 336M OF 75MM PE AND REPLACE OR TRANSFER APPROX 35 SERVICES.,18,Completed,18/03/2016 12:00:00 AM,29/07/2016 12:00:00 AM,WGA - BRISTOL & BATH,Give and Take,374694,166839,51.400012746955987,-2.365155709879401,"(51.40001274695599, -2.365155709879401)",21,1,233,7,1
600041,Replacement of Street Lights in Garrick Road,GARRICK ROAD WHITEWAYBATHBATH AND NORTH EAST SOMERSET,Completed,10/10/2016 12:00:00 AM,16/11/2016 12:00:00 AM,SSE Street Lighting,Signing Only,371920,164343,51.377439080895932,-2.40483201107362,"(51.37743908089593, -2.4048320110736197)",28,90,475,11,1
30015231,Poke out from existing chamber with 1m of Ducting for 3rd party interconnect,Junction with Peats Hill,Completed,05/08/2016 12:00:00 AM,09/08/2016 12:00:00 AM,001 Hibernia Atlantic UK Limited,Give and Take,362458,164323,51.376710451649487,-2.540771160400904,"(51.37671045164949, -2.5407711604009044)",7,74,398,20,1
30014944,1 joint hole in tarmac footway for supply alteration,Outside 88,Completed,19/07/2016 12:00:00 AM,25/07/2016 12:00:00 AM,1163 NE MENDIP CONSTRUCTION,Signing Only,372585,165520,51.388054633794646,-2.395368988549586,"(51.388054633794646, -2.395368988549586)",29,16,319,8,1
30015092,Section 81/Defect - 19:00 Work Start,20m north west of 1 Raby Place,Completed,19/07/2016 12:00:00 AM,21/07/2016 12:00:00 AM,WESSEX WATER (Bath Operations),Multi-Way Signals,375661.08,165047,51.383942565735133,-2.351131017417736,"(51.38394256573513, -2.3511310174177362)",22,30,74,12,1
30006760,REPLACE 127M OF 6IN CI WITH 127M OF 125MM PE AND REPLACE OR TRANSFER APPROX 18 SERVICES,Outside of 1 Highfield,Completed,01/08/2016 12:00:00 AM,09/09/2016 12:00:00 AM,WGA - BRISTOL & BATH,Give and Take,372878,164316,51.377243085171635,-2.391066057214675,"(51.377243085171635, -2.391066057214675)",28,89,464,11,1
202631,REVISED DATES - Carriageway micro asphalt surfacing work - 1 day approx.,Southlands Drive,Completed,11/08/2016 12:00:00 AM,11/08/2016 12:00:00 AM,Bath and North East Somerset Council,Road Closure,366656.37,158493.59,51.324558993635492,-2.479905463249647,"(51.32455899363549, -2.479905463249647)",14,88,454,16,1
30015155,Urgent excavation in highway to locate and repair LV cable fault.,Opposite 4,Completed,16/07/2016 05:30:00 PM,25/07/2016 12:00:00 AM,1163 NE MENDIP CONSTRUCTION,Give and Take,370272,154820,51.291729089373213,-2.427711269790902,"(51.29172908937321, -2.4277112697909016)",12,78,410,24,1
30009926,REPLACE 1051M OF 6IN CI WITH 1051M OF 125MM PE AND REPLACE OR TRANSFER APPROX 18 SERVICES.,Belle Vue Gardens,Completed,01/07/2016 12:00:00 AM,26/08/2016 12:00:00 AM,WGA - BRISTOL & BATH,Two-Way Signals,376212,167536,51.406345789608807,-2.343382249300064,"(51.40634578960881, -2.3433822493000642)",1,25,51,10,1
30014524,New Water Supply,Adj to Longacre,Completed,05/09/2016 12:00:00 AM,09/09/2016 12:00:00 AM,Bristol Water,Road Closure,358292.01,160260.12,51.339888703918312,-2.600144774589296,"(51.33988870391831, -2.600144774589296)",4,33,89,21,1
30015185,Tree trimming - No excavation,Outside 34 to Outside Lissett,Completed,16/08/2016 12:00:00 AM,16/08/2016 12:00:00 AM,1167 SHEP/WELL M&R,Stop/Go Boards,367065,154639,51.289924520116728,-2.47368422207692,"(51.28992452011673, -2.47368422207692)",11,11,289,25,1
30015320,Please replace existing CST,20,Completed,28/07/2016 10:04:25 AM,03/08/2016 12:00:00 AM,Bristol Water,Signing Only,367481,166953,51.400668633189639,-2.468847900070837,"(51.40066863318964, -2.4688479000708368)",17,82,434,16,1
30012171,REPLACE 336M OF 4IN SI WITH 336M OF 75MM PE AND REPLACE OR TRANSFER APPROX 35 SERVICES.,6,Completed,18/03/2016 12:00:00 AM,29/07/2016 12:00:00 AM,WGA - BRISTOL & BATH,Give and Take,374522,166818,51.399816192266108,-2.367626596429436,"(51.39981619226611, -2.3676265964294365)",21,1,233,7,1
30009936,REPLACE 101M OF 6IN CI WITH 101M OF 125MM PE AND REPLACE OR TRANSFER APPROX 2 SERVICES.,At the Side of turnpike cottage,Completed,01/07/2016 12:00:00 AM,10/08/2016 12:00:00 AM,WGA - BRISTOL & BATH,Two-Way Signals,376298,167293,51.404164485824936,-2.34212955771552,"(51.404164485824936, -2.34212955771552)",1,25,51,10,1
30009926,REPLACE 1051M OF 6IN CI WITH 1051M OF 125MM PE AND REPLACE OR TRANSFER APPROX 18 SERVICES.,KEMPSEY,Completed,01/07/2016 12:00:00 AM,26/08/2016 12:00:00 AM,WGA - BRISTOL & BATH,Two-Way Signals,376181,167679,51.407630258747332,-2.343837569428204,"(51.40763025874733, -2.3438375694282043)",1,25,51,10,1
30012525,Renovations- snagging,140m to the rhs of entrance to The Linney 10mm,Completed,29/07/2016 12:00:00 AM,02/08/2016 12:00:00 AM,Bristol Water,Road Closure,355810.39,157292.43,51.313017673409902,-2.635399528718912,"(51.3130176734099, -2.6353995287189123)",2,6,274,21,1
202702,Drainage works. Signals to facilitate the works in the closures of Norton Lane and Stanton Road.,Junction Norton Lane to Chew bridge,Completed,15/08/2016 12:00:00 AM,19/08/2016 12:00:00 AM,Bath and North East Somerset Council,Two-Way Signals,357990.5,163164.6,51.365981169691615,-2.604816885696156,"(51.365981169691615, -2.604816885696156)",6,31,78,21,1
30015318,Replair leaking meter,31,Completed,28/07/2016 09:35:43 AM,03/08/2016 12:00:00 AM,Bristol Water,Signing Only,365766.82,154077.46,51.284798631092819,-2.492245854429375,"(51.28479863109282, -2.4922458544293753)",25,13,304,27,1
202674,OVER-NIGHT CLOSURES - Carriageway reconstruction and drainage works.,North Parade Rd (Pulteney Rd to North Parade Bridge) -,Completed,10/10/2016 12:00:00 AM,12/10/2016 12:00:00 AM,Bath and North East Somerset Council,Road Closure,375415.34,164708.42,51.380887591413106,-2.354638610410204,"(51.38088759141311, -2.3546386104102037)",33,21,3,7,1
30015132,REPLACING OVERHEAD CONDUCTORS																REPLACING OVERHEAD CONDUCTORS,O/S 1 - 6,Completed,20/07/2016 12:00:00 AM,22/07/2016 12:00:00 AM,Melksham Depot,Stop/Go Boards,377102,158292,51.323264968893696,-2.329988830234428,"(51.323264968893696, -2.3299888302344285)",10,114,55,10,1
30014897,1 joint hole in tarmac footway and 20m trenching in tarmac footway for new supply,Outside 4,Completed,18/07/2016 12:00:00 AM,25/07/2016 12:00:00 AM,1163 NE MENDIP CONSTRUCTION,Signing Only,364527,158407,51.323651175756332,-2.510454478489497,"(51.32365117575633, -2.5104544784894967)",3,42,139,23,1
30009949,REPLACE 97M OF 4IN SI WITH 97M OF 75MM PE AND REPLACE OR TRANSFER APPROX 14 SERVICES,JUNC SEVERN WAY/CHANDAG ROAD - JUNC SEVERN WAY/WELLAND ROAD,Completed,01/04/2016 12:00:00 AM,31/03/2017 12:00:00 AM,WGA - BRISTOL & BATH,Give and Take,366041,168024,51.410213617470951,-2.489649937658636,"(51.41021361747095, -2.4896499376586356)",16,45,157,3,1
30015369,Repair Service,30,Completed,04/08/2016 12:00:00 AM,08/08/2016 12:00:00 AM,WESSEX WATER (Bath Operations),Signing Only,374841,164227,51.376533634409533,-2.362856731369699,"(51.37653363440953, -2.3628567313696993)",33,109,571,12,1
202643,REVISED DATE - Carriageway micro asphalt surfacing work - 1 day approx.,Cleevedale Road,Completed,04/08/2016 12:00:00 AM,05/08/2016 12:00:00 AM,Bath and North East Somerset Council,Road Closure,375265.89,162196.81,51.358297950927181,-2.356610379446418,"(51.35829795092718, -2.356610379446418)",19,36,116,18,1
30015316,Urgent excavation in highway to locate and repair HV cable fault.,Adjacent Woodborough Lodge,Completed,27/07/2016 05:50:00 PM,04/08/2016 12:00:00 AM,1163 NE MENDIP CONSTRUCTION,Two-Way Signals,369298,156681,51.308410398776772,-2.441839594996662,"(51.30841039877677, -2.4418395949966625)",9,28,63,22,1
30015262,Repair Service Leak,167 & 168,Completed,23/07/2016 12:00:00 PM,27/07/2016 12:00:00 AM,WESSEX WATER (Bath Operations),Signing Only,371789.26,164908.82,51.382520098713925,-2.406755510514008,"(51.382520098713925, -2.4067555105140075)",28,91,481,11,1
30002341,Repair Service,O/S NO 10,Completed,18/07/2016 12:00:00 AM,20/07/2016 12:00:00 AM,WESSEX WATER (Bath Operations),Signing Only,374490,163840,51.373038199745565,-2.367871663952811,"(51.373038199745565, -2.367871663952811)",18,5,250,17,1
30009955,REPLACE 14M OF 4IN DI WITH 14M OF 75MM PE,O/S NO. 8 TEVIOT ROAD - O/S NO. 17 TEVIOT ROAD,Completed,01/04/2016 12:00:00 AM,31/03/2017 12:00:00 AM,WGA - BRISTOL & BATH,Give and Take,366423,167851,51.40868095282773,-2.484141332480588,"(51.40868095282773, -2.484141332480588)",16,47,141,3,1
30014274,"REPLACE 127M OF 2IN, 4IN ST, CI WITH 127M OF 63MM, 75MM PE AND REPLACE OR TRANSFER APPROX 48 SERVICES",FOOTPATHS O/S FLATS NO.S 51 BRADFORD PARK TO O/S NO.98 BRADFORD PARK.,Completed,30/08/2016 12:00:00 AM,30/09/2016 12:00:00 AM,WGA - BRISTOL & BATH,No Carriageway Incursion,375226,162698,51.362802656448736,-2.357218333083722,"(51.362802656448736, -2.3572183330837215)",19,39,108,18,1
30015261,Urgent excavation in highway to locate and repair LV cable fault.,o/s no 38,Completed,23/07/2016 08:15:00 PM,02/08/2016 12:00:00 AM,1163 NE MENDIP CONSTRUCTION,Give and Take,366677,153893,51.283194225968458,-2.479178225149757,"(51.28319422596846, -2.4791782251497567)",26,100,519,26,1
30015015,NEW GAS SERVICE 9M PUBLIC 6 PRIVATE,O/S 2,Completed,08/08/2016 12:00:00 AM,12/08/2016 12:00:00 AM,BATH,Give and Take,366991,154679,51.290279879567365,-2.474749080373772,"(51.290279879567365, -2.4747490803737717)",11,8,282,25,1
30015211,Replace cst marked blue at side of road to RH Side of parking area with Ebco box and meter.,70,Completed,26/07/2016 12:00:00 AM,28/07/2016 12:00:00 AM,Bristol Water,Signing Only,362508,159639,51.334598578594935,-2.539557614602088,"(51.334598578594935, -2.539557614602088)",5,34,95,20,1
30015196,Meter Option,Rear of 7 Beaufort West,Completed,24/07/2016 12:00:00 AM,27/07/2016 12:00:00 AM,WESSEX WATER (Bath Operations),Signing Only,375967.91,166235.17,51.394639097774579,-2.346802861818398,"(51.39463909777458, -2.3468028618183983)",23,58,230,4,1
30015244,Repair Service,11,Completed,26/07/2016 12:00:00 AM,28/07/2016 12:00:00 AM,WESSEX WATER (Bath Operations),Signing Only,373775,163928,51.373796727966607,-2.378149850573884,"(51.37379672796661, -2.378149850573884)",31,64,350,14,1
30015154,Urgent excavation in highway to locate and repair LV cable fault.,Outside 8,Completed,16/07/2016 11:40:00 PM,26/07/2016 12:00:00 AM,1163 NE MENDIP CONSTRUCTION,Give and Take,374262,163776,51.372452409412375,-2.371142449559084,"(51.372452409412375, -2.3711424495590845)",18,5,253,17,1
30015331,NEW GAS SERVICE 2M PUBLIC 3M PRIVATE,O/S 4,Completed,23/08/2016 12:00:00 AM,30/08/2016 12:00:00 AM,BATH,Give and Take,365733,153916,51.283344828680818,-2.492715230070443,"(51.28334482868082, -2.492715230070443)",25,13,302,27,1
30009927,"REPLACE 151M OF 6IN, 4IN CI WITH 151M OF 75MM, 125MM PE AND REPLACE OR TRANSFER APPROX 12 SERVICES.",Outside of upper Swainswick house,Completed,20/06/2016 12:00:00 AM,26/08/2016 12:00:00 AM,WGA - BRISTOL & BATH,Road Closure,375875,168412,51.414207982589652,-2.348286993778692,"(51.41420798258965, -2.3482869937786917)",1,25,51,10,1
30014881,Section 81/Defect,Side of 1 Hungerford Road,Completed,29/09/2016 12:00:00 AM,03/10/2016 12:00:00 AM,WESSEX WATER (Bath Operations),Road Closure,373439,165141,51.384687667667123,-2.383067981322674,"(51.38468766766712, -2.3830679813226743)",34,54,206,9,1
30015170,Install cst & meter,Little Cleeve  Verge,Completed,21/07/2016 12:00:00 AM,25/07/2016 12:00:00 AM,Bristol Water,Signing Only,356746.2,163133.12,51.365604470269474,-2.622685206272241,"(51.365604470269474, -2.622685206272241)",6,31,80,21,1
202634,REVISED DATE - Carriageway micro asphalt surfacing work - 1 day approx.,Glebelands,Completed,17/08/2016 12:00:00 AM,17/08/2016 12:00:00 AM,Bath and North East Somerset Council,Road Closure,367832.72,154115.17,51.285258543937402,-2.462627877537484,"(51.2852585439374, -2.462627877537484)",26,97,515,26,1
30015307,Erect new pole,Outside The Cottage,Completed,07/09/2016 12:00:00 AM,09/09/2016 12:00:00 AM,1164 SE MENDIP CONSTRUCTION,Signing Only,365080,156450,51.306089332440699,-2.502326473429182,"(51.3060893324407, -2.502326473429182)",13,68,363,23,1
30006760,REPLACE 127M OF 6IN CI WITH 127M OF 125MM PE AND REPLACE OR TRANSFER APPROX 18 SERVICES,Junction of Long hay close,Completed,01/08/2016 12:00:00 AM,09/09/2016 12:00:00 AM,WGA - BRISTOL & BATH,Give and Take,372901,164281,51.376929487698732,-2.390732929345218,"(51.37692948769873, -2.3907329293452184)",28,89,464,11,1
30015120,Repair Service,12,Completed,20/07/2016 12:00:00 AM,22/07/2016 12:00:00 AM,WESSEX WATER (Bath Operations),Signing Only,373571.08,163426.82,51.36928088937038,-2.381041971346732,"(51.36928088937038, -2.3810419713467317)",31,65,344,14,1
30015147,Lift manhole cover and test existing monitoring equipment,Kingham Cottage,Completed,27/07/2016 12:00:00 AM,29/07/2016 12:00:00 AM,WESSEX WATER (Engineering Northern WECS),Signing Only,376232,162152,51.357936480708986,-2.342732677714878,"(51.357936480708986, -2.3427326777148783)",19,37,103,18,1
30015139,Excavate footway to install swept tee,Outside 49,Completed,21/07/2016 12:00:00 AM,25/07/2016 12:00:00 AM,NATIONAL NOTICING DEPARTMENT,Signing Only,365010,167564,51.406014745651227,-2.504427470474371,"(51.40601474565123, -2.504427470474371)",37,53,190,2,1
30012171,REPLACE 336M OF 4IN SI WITH 336M OF 75MM PE AND REPLACE OR TRANSFER APPROX 35 SERVICES.,7,Completed,18/03/2016 12:00:00 AM,29/07/2016 12:00:00 AM,WGA - BRISTOL & BATH,Give and Take,374539,166822,51.399852924782586,-2.367382520573512,"(51.399852924782586, -2.3673825205735124)",21,1,233,7,1
202584,Major Slope stabilisation works to both sides of the cutting.,"Stanton Road, Pensford  between the Grange and Lower Belluton Farm.",Completed,05/09/2016 12:00:00 AM,25/11/2016 12:00:00 AM,Bath and North East Somerset Council,Road Closure,361163.24,164338.09,51.376758766912239,-2.559374302578069,"(51.37675876691224, -2.5593743025780693)",7,74,399,20,1
30015351,INSTALL TEE IN FOOTWAY,O/S 185 PARK ROAD KEYNSHAM BRISTOL  BS31 1AT,Completed,03/08/2016 12:00:00 AM,05/08/2016 12:00:00 AM,NATIONAL NOTICING DEPARTMENT,No Carriageway Incursion,365261.9,167585.64,51.406224853965682,-2.500808269452784,"(51.40622485396568, -2.5008082694527842)",37,53,186,2,1
30009957,REPLACE 87M OF 4IN DI WITH 87M OF 75MM PE AND REPLACE OR TRANSFER APPROX 11 SERVICES,JUNC DENE CLOSE/HURN LANE - O/S NO. 8 DENE CLOSE,Completed,01/04/2016 12:00:00 AM,31/03/2017 12:00:00 AM,WGA - BRISTOL & BATH,Give and Take,365988,167502,51.405516983948289,-2.490361708177715,"(51.40551698394829, -2.4903617081777147)",16,46,146,3,1
600076,"Please carry out the necessary work to replace the aluminium lighting columns with 6 metre tubular galvanised steel columns,",TEMPLE CLOUDBRISTOLBATH AND NORTH EAST SOMERSET,Completed,01/08/2016 12:00:00 AM,03/08/2016 12:00:00 AM,SSE Street Lighting,Signing Only,362582,158101,51.320774799833309,-2.538333425330127,"(51.32077479983331, -2.5383334253301273)",2,7,267,20,1
30014876,NEW GAS SERVICE 3M PUBLIC 61M PRIVATE,MERIVALE,Completed,28/07/2016 12:00:00 AM,03/08/2016 12:00:00 AM,BRISTOL CENTRAL,Give and Take,355816,162097,51.356216791272324,-2.635916659875632,"(51.356216791272324, -2.6359166598756323)",6,31,82,21,1
30012171,REPLACE 336M OF 4IN SI WITH 336M OF 75MM PE AND REPLACE OR TRANSFER APPROX 35 SERVICES.,26,Completed,18/03/2016 12:00:00 AM,29/07/2016 12:00:00 AM,WGA - BRISTOL & BATH,Give and Take,374554,166821,51.399844609501066,-2.36716683288943,"(51.399844609501066, -2.36716683288943)",21,1,233,7,1
30015376,Repair Service,87 High Street,Completed,04/08/2016 12:00:00 AM,08/08/2016 12:00:00 AM,WESSEX WATER (Bath Operations),Signing Only,372456,166635,51.398073785434633,-2.397309685594316,"(51.39807378543463, -2.3973096855943155)",20,105,539,5,1
30015296,Repair Service Leak,Junct Prospect Road,Completed,26/07/2016 04:30:00 PM,28/07/2016 12:00:00 AM,WESSEX WATER (Bath Operations),Signing Only,376310.91,163913.47,51.373778069069502,-2.341717374767884,"(51.3737780690695, -2.3417173747678843)",33,110,558,12,1
30014961,NEW GAS SERVICE 3M PUBLIC,O/S BEECH COTTAGE,Completed,04/10/2016 12:00:00 AM,18/10/2016 12:00:00 AM,BATH,Road Closure,378160,159862,51.337423588589978,-2.31490276658351,"(51.33742358858998, -2.3149027665835105)",10,113,52,10,1
202669,Removal of  trees from RVP,Royal Victoria Park opp Midalnd Rd along Upper Bristol Road.,Completed,21/07/2016 12:00:00 AM,22/07/2016 12:00:00 AM,Bath and North East Somerset Council,Two-Way Signals,373864.95,165229.67,51.385504800671569,-2.376953801869059,"(51.38550480067157, -2.3769538018690586)",34,115,205,9,1
30012477,CONNECTION POINT,J/O WELLSWAY,Completed,25/07/2016 12:00:00 AM,12/08/2016 12:00:00 AM,WGA - BRISTOL & BATH,Road Closure,374622,163343,51.368575376735414,-2.365939704719293,"(51.368575376735414, -2.365939704719293)",18,5,252,17,1
30015040,NEW GAS MAIN 5M PUBLIC,O/S CHEW VALLEY COMPREHENSIVE SCHOOL,Completed,08/08/2016 12:00:00 AM,17/08/2016 12:00:00 AM,BRISTOL CENTRAL,Give and Take,356728,162480,51.359730784512401,-2.62286692044055,"(51.3597307845124, -2.6228669204405497)",6,31,83,21,1
30006814,Existing bridge over the railway to be re-constructed. Footpath will be required to be closed so the existing bridge can be lifted out& the new bridge installed. There will also be works to re-profile the steps either side  of the bridge to match the profile of the new bridge.,At Road over rail bridge named Hampton Row Footbridge,Completed,01/10/2016 12:00:00 AM,01/03/2017 12:00:00 AM,NR-WESTERN Electricfication,Signing Only,376051,165804,51.390765778084855,-2.345579396755959,"(51.390765778084855, -2.345579396755959)",22,95,496,6,1
600044,2016-17 CAPITAL WORKS (PL'S 347-360 ONLY),CORONATION AVENUE KEYNSHAM. PL 347 TO 360. OUTSIDE HOUSES 75 TO 152BATH AND NORTH EAST SOMERSET,Completed,16/01/2017 12:00:00 AM,22/02/2017 12:00:00 AM,SSE Street Lighting,Signing Only,364858,167657.5,51.406845998512395,-2.506621923323077,"(51.406845998512395, -2.5066219233230767)",37,53,190,2,1
30009926,REPLACE 1051M OF 6IN CI WITH 1051M OF 125MM PE AND REPLACE OR TRANSFER APPROX 18 SERVICES.,VALLEY VIEW,Completed,01/07/2016 12:00:00 AM,26/08/2016 12:00:00 AM,WGA - BRISTOL & BATH,Two-Way Signals,376188,167664,51.407495682488324,-2.343735919471436,"(51.407495682488324, -2.3437359194714356)",1,25,51,10,1
30014957,Install 15m of 1 way poly duct in Footway,"O/S 33 TO O/S ST JOHNS SCHOOL, PULTENEY ROAD, BATH.",Completed,18/07/2016 12:00:00 AM,20/07/2016 12:00:00 AM,BT,Signing Only,375639,164786,51.381594838901329,-2.351430306992908,"(51.38159483890133, -2.351430306992908)",35,21,3,7,1
600067,Please replace existing damaged CIC (C002) & 2 No. bollards (B001 & B003),KEYNSHAMBATH AND NORTH EAST SOMERSET,Completed,07/08/2016 12:00:00 AM,07/08/2016 12:00:00 AM,SSE Street Lighting,Two-Way Signals,366560,168263,51.412393484894729,-2.482210680901588,"(51.41239348489473, -2.4822106809015883)",16,47,154,3,1
30014737,RENEWAL OF DEFECTIVE POLE,"OPP TRAVIS PERKINS, CAMERTON ROAD TIMSBURY BA2 0NY",Completed,24/07/2016 12:00:00 AM,25/07/2016 12:00:00 AM,BT,Two-Way Signals,368166,158351,51.323363709799921,-2.458228501974986,"(51.32336370979992, -2.4582285019749857)",9,28,62,22,1
30015113,Lead Replacement,o/s 6  6mm f/p,Completed,19/07/2016 12:00:00 AM,21/07/2016 12:00:00 AM,Bristol Water,Give and Take,365073.46,168461.43,51.414087692130806,-2.503603850307634,"(51.414087692130806, -2.5036038503076345)",24,49,164,1,1
202688,Construction of highway gulleys along length of Priors Hill.,Road will be closed in phases to allow access for residents. Road closed from Junction Hayeswood Rd to bottom of hill.,Completed,29/08/2016 12:00:00 AM,23/09/2016 12:00:00 AM,Bath and North East Somerset Council,Road Closure,366038.23,158581.16,51.325309670655699,-2.48878451907061,"(51.3253096706557, -2.48878451907061)",14,87,460,16,1
600036,Replacement of Street Lights in Elliston Drive,ELLISTON DRIVE SOUTHDOWNBATHBATH AND NORTH EAST SOMERSET,Completed,07/10/2016 12:00:00 AM,15/11/2016 12:00:00 AM,SSE Street Lighting,Signing Only,372703.75,163932.75,51.373788727289487,-2.393539983447116,"(51.37378872728949, -2.393539983447116)",27,85,,15,1
30014949,Tree trimming - No excavation,Outside 22 to Outside 66,Completed,25/07/2016 12:00:00 AM,25/07/2016 12:00:00 AM,1167 SHEP/WELL M&R,Give and Take,370220,157822,51.318718882175737,-2.428708541741663,"(51.31871888217574, -2.4287085417416634)",15,71,391,22,1
600063,Please carry out the necessary work to replace 2 No. aluminium columns with 6 metre galvanised tubular steel post top columns,BATHAMPTONBATHBATH AND NORTH EAST SOMERSET,Completed,18/07/2016 12:00:00 AM,20/07/2016 12:00:00 AM,SSE Street Lighting,Signing Only,377747,166017,51.39275035922887,-2.32121859962805,"(51.39275035922887, -2.3212185996280503)",1,27,27,10,1
30014912,NEW GAS SERVICE 5M PUBLIC 20M PRIVATE,"O/S 3, PARK TAVERN",Completed,01/08/2016 12:00:00 AM,05/08/2016 12:00:00 AM,BATH,Give and Take,373749,165283,51.385978939269286,-2.37862394720598,"(51.385978939269286, -2.3786239472059796)",34,54,203,9,1
30009926,REPLACE 1051M OF 6IN CI WITH 1051M OF 125MM PE AND REPLACE OR TRANSFER APPROX 18 SERVICES.,Belle Vue Gardens,Completed,01/07/2016 12:00:00 AM,26/08/2016 12:00:00 AM,WGA - BRISTOL & BATH,Two-Way Signals,376216,167536,51.406345958195921,-2.343324743504497,"(51.40634595819592, -2.343324743504497)",1,25,51,10,1
30015219,Install 1m of 1 way poly duct in Footway,"O/S NO 33, MINSTER WAY",Completed,28/07/2016 12:00:00 AM,01/08/2016 12:00:00 AM,BT,Signing Only,376403.25,165687.62,51.389734180172567,-2.340509238360223,"(51.38973418017257, -2.340509238360223)",22,29,71,12,1
600068,"Please replace existing column with new 10m CU PT column, c/w Iridium 2 68W lantern.",SALTFORDBATH AND NORTH EAST SOMERSET,Completed,14/08/2016 12:00:00 AM,14/08/2016 12:00:00 AM,SSE Street Lighting,Two-Way Signals,368861,166487,51.396556386191826,-2.448970074901187,"(51.396556386191826, -2.4489700749011867)",17,81,424,16,1
600022,REPLACE LC 1&2 WITH 5M STEEL COLUMNSREPLACE LC 3 WITH 5M MID HINGE COLUMN,LOWER WESTONBATHBATH AND NORTH EAST SOMERSET,Completed,25/07/2016 12:00:00 AM,29/07/2016 12:00:00 AM,SSE Street Lighting,Signing Only,373513,165548,51.38835065666597,-2.38203512271913,"(51.38835065666597, -2.3820351227191305)",34,54,202,9,1
202650,REVISED DATES - Carriageway micro asphalt surfacing work - 1 day approx.,Church Road,Completed,07/08/2016 12:00:00 AM,07/08/2016 12:00:00 AM,Bath and North East Somerset Council,Road Closure,376163.66,162318.94,51.35943464772128,-2.343725370979365,"(51.35943464772128, -2.3437253709793646)",19,37,103,18,1
30009941,"REPLACE 123M OF 6IN, 4IN SI WITH 123M OF 125MM, 75MM PE AND REPLACE OR TRANSFER APPROX 15 SERVICES",O/S NO. 35 COXLEY DRIVE - S/O NO. 33 COXLEY DRIVE.,Completed,01/04/2016 12:00:00 AM,31/03/2017 12:00:00 AM,WGA - BRISTOL & BATH,Give and Take,375601,166841,51.400070653750213,-2.352118225408148,"(51.40007065375021, -2.3521182254081485)",23,57,227,4,1
202649,REVISED DATE - Carriageway micro asphalt surfacing work - 1 day approx.,Tyning Road,Completed,05/08/2016 12:00:00 AM,05/08/2016 12:00:00 AM,Bath and North East Somerset Council,Road Closure,376235.53,162499.84,51.361064239250751,-2.342705338666772,"(51.36106423925075, -2.3427053386667724)",19,37,114,18,1
30015141,New Connection,"Curvica Ltd, Johnsons Building",Completed,20/07/2016 12:00:00 AM,22/07/2016 12:00:00 AM,WESSEX WATER (Bath Operations),Signing Only,374541.09,164838.97,51.38202270989995,-2.367209617871734,"(51.38202270989995, -2.3672096178717337)",34,55,195,9,1
30015099,Replace 1 existing pole,"356125 162353 IN VERGE OUTSIDE PAGANS HILL HOUSE ON PAGANS HILL, PAGANS HILL",Completed,19/07/2016 12:00:00 AM,21/07/2016 12:00:00 AM,BT,Two-Way Signals,356125,162353,51.358542532970404,-2.631511039925575,"(51.358542532970404, -2.6315110399255746)",6,31,82,21,1
202618,Upgrade of existing signalised pedestrian crossings to be undertaken by IMTECH.,"A4 Bath Road/Manor Road/Beech Road, Saltford",Completed,01/08/2016 12:00:00 AM,29/08/2016 12:00:00 AM,Bath and North East Somerset Council,Two-Way Signals,368288.49,167086.69,51.401916567858834,-2.457252656785153,"(51.401916567858834, -2.457252656785153)",17,80,422,16,1
202686,"125mts of c/w, f/w & verge dig required to lay duct from entrance to Bath Spa University to the new chamber on verge opposite roundabout",A4/A39 Roundabout opposite Globe Inn Pub Corston,Completed,24/07/2016 12:00:00 AM,26/07/2016 12:00:00 AM,Bath and North East Somerset Council,Two-Way Signals,370115.57,165338.46,51.386297162209623,-2.430840794676703,"(51.38629716220962, -2.4308407946767026)",9,28,68,22,1
30015384,damaged servie,",30,",Completed,01/08/2016 09:00:00 PM,05/08/2016 12:00:00 AM,Bristol Water,Signing Only,366105.03,154637.44,51.289853968616143,-2.487449860421463,"(51.28985396861614, -2.4874498604214628)",11,9,288,25,1
30014872,NEW GAS SERVICE 2M PUBLIC 6M PRIVATE,20,Completed,27/07/2016 12:00:00 AM,02/08/2016 12:00:00 AM,BRISTOL CENTRAL,Give and Take,364724,158261,51.322350726110656,-2.507612975853948,"(51.322350726110656, -2.5076129758539483)",3,43,134,23,1
30014849,New Connection,Junct Lansdown Place West to The Old Garden,Completed,11/07/2016 12:00:00 AM,26/07/2016 12:00:00 AM,WESSEX WATER (Bath Operations),Signing Only,374519,165931,51.391840650440976,-2.36760574560943,"(51.391840650440976, -2.3676057456094295)",21,2,242,7,1
30015380,3m trenching in tarmac footway for supply alteration,Adjacent 12 Hill Court,Completed,25/08/2016 12:00:00 AM,01/09/2016 12:00:00 AM,1164 SE MENDIP CONSTRUCTION,Signing Only,365141,156506,51.306596603739443,-2.501456930413454,"(51.30659660373944, -2.5014569304134544)",13,68,363,23,1
30014995,Rolling programme of underground cabling works,Outside 197 to The Batch,Completed,25/07/2016 12:00:00 AM,05/08/2016 12:00:00 AM,BT,Stop/Go Boards,377900,167474.5,51.405861451849972,-2.319110903168835,"(51.40586145184997, -2.3191109031688346)",1,23,35,10,1
30015084,Section 81/Defect,Junct Devonshire Buildings,Completed,17/07/2016 12:00:00 AM,20/07/2016 12:00:00 AM,WESSEX WATER (Bath Operations),Signing Only,374635.45,163479.46,51.369802958046755,-2.365756283323062,"(51.369802958046755, -2.365756283323062)",18,5,252,17,1
30015169,NEW GAS SERVICE 3M PUBLIC 6M PRIVATE,O/S 76,Completed,08/08/2016 12:00:00 AM,11/08/2016 12:00:00 AM,BRISTOL CENTRAL,Give and Take,364735,158440,51.32396086809004,-2.507472897846522,"(51.32396086809004, -2.5074728978465224)",3,43,134,23,1
30014651,2 joint holes in tarmac footway for new supply,Opposite 1,Completed,12/07/2016 12:00:00 AM,20/07/2016 12:00:00 AM,1164 SE MENDIP CONSTRUCTION,Signing Only,367474,153788,51.282296349962877,-2.467741447973436,"(51.28229634996288, -2.467741447973436)",26,98,516,26,1
202694,Surface Dressing works - REVISED START DATE,Brassknocker Roundabout to Norwood Avenue Approach Island,Completed,13/08/2016 12:00:00 AM,13/08/2016 12:00:00 AM,Bath and North East Somerset Council,Stop/Go Boards,377922.21,163608.44,51.371100656391953,-2.31854994475827,"(51.37110065639195, -2.31854994475827)",22,29,70,12,1
30014760,Scheduled right of way BA274& BA271 from Durley Lane closed at the footbridge over the railway. Works required in order to demolish Existing bridge.  Footway will be required to be closed so the existing bridge can be lifted out & the new bridge installed. There will also be works to re-profile the steps either side  of the bridge to match the profile of the new bridge.,At Road over rail bridge named: Park Cutting Footbridge,Completed,24/10/2016 12:00:00 AM,07/03/2017 12:00:00 AM,NR-WESTERN Electricfication,Road Closure,364455,169809,51.426165435949109,-2.512632011802067,"(51.42616543594911, -2.512632011802067)",24,48,161,1,1
30011958,REPLACE TEMPORARY REINSTATEMENT WITH PERMANENT,202,Completed,01/08/2016 12:00:00 AM,03/08/2016 12:00:00 AM,BRISTOL SOUTH,Give and Take,366110,166449,51.396056484699258,-2.488506920168298,"(51.39605648469926, -2.488506920168298)",16,44,151,3,1
30015116,Repair Service,38,Completed,19/07/2016 12:00:00 AM,21/07/2016 12:00:00 AM,WESSEX WATER (Bath Operations),Signing Only,373653.61,164084.47,51.375197976895151,-2.379905415431705,"(51.37519797689515, -2.379905415431705)",31,64,350,14,1
30009927,"REPLACE 151M OF 6IN, 4IN CI WITH 151M OF 75MM, 125MM PE AND REPLACE OR TRANSFER APPROX 12 SERVICES.",Outside of the coach house,Completed,20/06/2016 12:00:00 AM,26/08/2016 12:00:00 AM,WGA - BRISTOL & BATH,Road Closure,375918,168390,51.41401200801976,-2.347667199154165,"(51.41401200801976, -2.3476671991541647)",1,25,51,10,1
30012171,REPLACE 336M OF 4IN SI WITH 336M OF 75MM PE AND REPLACE OR TRANSFER APPROX 35 SERVICES.,14 COURTNEY HOUSE,Completed,18/03/2016 12:00:00 AM,29/07/2016 12:00:00 AM,WGA - BRISTOL & BATH,Give and Take,374670,166845,51.40006561944849,-2.365501126472401,"(51.40006561944849, -2.3655011264724006)",21,1,233,7,1
600074,"Please carry out the necessary work to replace the aluminium lighting column with a 6 metre tubular galvanised steel column,",TEMPLE CLOUDBRISTOLBATH AND NORTH EAST SOMERSET,Completed,01/08/2016 12:00:00 AM,03/08/2016 12:00:00 AM,SSE Street Lighting,Signing Only,362643,158108,51.320841760980379,-2.537458853451183,"(51.32084176098038, -2.537458853451183)",2,7,267,20,1
30015074,8m road crossing in tarmac road and 2m trenching in tarmac road for new supply.Working under Winway Homes Deveopments Ltd road closure.,Opposite junction of Brook View,Completed,22/08/2016 12:00:00 AM,30/08/2016 12:00:00 AM,1163 NE MENDIP CONSTRUCTION,Signing Only,366286,160875,51.34594928244308,-2.485446710134628,"(51.34594928244308, -2.4854467101346285)",8,40,129,16,1
30012525,Renovations- snagging,120m to the rhs of entrance to The Linney 10mm,Completed,29/07/2016 12:00:00 AM,02/08/2016 12:00:00 AM,Bristol Water,Road Closure,355829.24,157278.3,51.312892095236919,-2.635127339742892,"(51.31289209523692, -2.635127339742892)",2,6,274,21,1
30015096,Repair Service,"Kennard Hotel, 11",Completed,18/07/2016 12:00:00 AM,20/07/2016 12:00:00 AM,WESSEX WATER (Bath Operations),Signing Only,375267.26,165107.82,51.384472321482463,-2.356794233826394,"(51.38447232148246, -2.356794233826394)",35,21,5,7,1
30009970,"REPLACE 194M OF 4IN DI, SI WITH 194M OF 75MM PE AND REPLACE OR TRANSFER APPROX 24 SERVICES",JUNC CHERWELL ROAD/WINDRUSH ROAD - O/S NO. 12 CHERWELL ROAD,Completed,01/04/2016 12:00:00 AM,31/03/2017 12:00:00 AM,WGA - BRISTOL & BATH,Give and Take,366309,167698,51.407298501712162,-2.485765717086506,"(51.40729850171216, -2.485765717086506)",16,47,141,3,1
600039,Replacement of Street Lights in Bloomfield Rise,BLOOMFIELD RISE BLOOMFIELDBATHBATH AND NORTH EAST SOMERSET,Completed,10/10/2016 12:00:00 AM,16/11/2016 12:00:00 AM,SSE Street Lighting,Signing Only,373531,162564.5,51.361525488485128,-2.381553230088934,"(51.36152548848513, -2.3815532300889335)",30,19,342,19,1
30015217,Urgent excavation in highway to locate and repair LV cable fault.,Outside Rosewell House,Completed,21/07/2016 09:30:00 AM,29/07/2016 12:00:00 AM,1163 NE MENDIP CONSTRUCTION,Signing Only,374802,164761,51.381333341415612,-2.363455098752471,"(51.38133334141561, -2.363455098752471)",34,55,196,9,1
30012525,Renovations- snagging,120m to the rhs of entrance to The Linney 10mm,Completed,29/07/2016 12:00:00 AM,02/08/2016 12:00:00 AM,Bristol Water,Road Closure,355822.03,157285.44,51.312955731176359,-2.63523166560162,"(51.31295573117636, -2.63523166560162)",2,6,274,21,1
600059,Replacement of street lights in Rotcombe Lane,ROTCOMBE LANE HIGH LITTLETONBRISTOLBATH AND NORTH EAST SOMERSET,Completed,30/01/2017 12:00:00 AM,08/03/2017 12:00:00 AM,SSE Street Lighting,Signing Only,364830.5,158711.5,51.326407961011327,-2.506129321177011,"(51.32640796101133, -2.5061293211770113)",3,42,138,23,1
30009928,"REPLACE 248M OF 2IN ST (DIRECTIONAL DRILL) WITH 303M OF 40MM, 63MM PE AND REPLACE OR TRANSFER APPROX 3 SERVICES.",Outside of the old policehouse,Completed,25/07/2016 12:00:00 AM,05/08/2016 12:00:00 AM,WGA - BRISTOL & BATH,Road Closure,376115,167822,51.408913245483781,-2.344796119069377,"(51.40891324548378, -2.344796119069377)",1,25,51,10,1
30015332,CLEAR BLOCKAGE IN FOOTWAY,O/S FLAT 2 FAULKLAND HOUSE FAULKLAND ROAD BATH  BA2 3LS,Completed,02/08/2016 12:00:00 AM,04/08/2016 12:00:00 AM,NATIONAL NOTICING DEPARTMENT,No Carriageway Incursion,373774.66,164156.52,51.375851440802883,-2.378171675643986,"(51.37585144080288, -2.3781716756439857)",31,63,349,14,1
30015155,Urgent excavation in highway to locate and repair LV cable fault.,Opposite 4,Completed,16/07/2016 05:30:00 PM,25/07/2016 12:00:00 AM,1163 NE MENDIP CONSTRUCTION,Give and Take,370272,154822,51.291747072441943,-2.427711436969274,"(51.29174707244194, -2.4277114369692745)",12,78,410,24,1
30014055,"Detailed Examination of Underbridge MLN1 111m 26ch, using a MEWP / ladder and small hand tools. Works to be carried out  between the hours of 22:00hrs Thursday 28th July to 06.00hrs  Friday 29th July 2016.",Bridge (Rail Over Road)  Named: GAS LANE,Completed,28/07/2016 12:00:00 AM,29/07/2016 12:00:00 AM,NR-WESTERN TERRITORY STRUCTURES ENGINEER,Road Closure,368788,166789,51.399267745382289,-2.450045979576766,"(51.39926774538229, -2.450045979576766)",17,81,424,16,1
30015230,Poke out from existing chamber with 1m of Ducting for 3rd party interconnect,Opposite Crabtree Cottage,Completed,04/08/2016 12:00:00 AM,08/08/2016 12:00:00 AM,001 Hibernia Atlantic UK Limited,Give and Take,362976,164433,51.377733615040341,-2.533340659244088,"(51.37773361504034, -2.533340659244088)",7,74,398,20,1
600055,INSTALL 32NO 10M TUBULAR COLUMNS.,FARRINGTON GURNEYBRISTOLBATH AND NORTH EAST SOMERSET,Completed,22/07/2016 12:00:00 AM,27/07/2016 12:00:00 AM,SSE Street Lighting,Signing Only,363158,155409,51.296607736413499,-2.529789282021967,"(51.2966077364135, -2.5297892820219667)",3,43,133,23,1
30015111,Safe Access to  Underground BT footway and carriageway boxes for fibre cabling and jointing work in existing duct. Required for new customer connection,OPP Percy place on London rd Walcot Bath BA1 6AR,Completed,27/07/2016 12:00:00 AM,28/07/2016 12:00:00 AM,BT,Two-Way Signals,375856.37,166099.75,51.393416715717841,-2.348396745073318,"(51.39341671571784, -2.3483967450733183)",36,95,489,6,1
30014066,Section 81/Defect,Glenvue House,Completed,01/08/2016 12:00:00 AM,03/08/2016 12:00:00 AM,WESSEX WATER (Bath Operations),Road Closure,365275,156282,51.304590744373613,-2.499512827645126,"(51.30459074437361, -2.4995128276451264)",13,69,366,23,1
30015138,"NEW NETWORK TO CONSTRUCT, CHAMBERS TO BUILD AND EXISTING CHAMBERS TO UPGRADE, INSTALLING SWEPT TEE'S",F/W S/O 15/16 ST GEORGES HOUSE IN NELSON LANE TO F/W S/O 1 UPPRER BRISTOL ROAD IN NELSON LANE,Completed,21/07/2016 12:00:00 AM,03/08/2016 12:00:00 AM,NATIONAL NOTICING DEPARTMENT,Signing Only,374290.99,165037.34,51.383795020950586,-2.370817675072598,"(51.383795020950586, -2.370817675072598)",34,115,209,9,1
30015346,Repair Service,6,Completed,03/08/2016 12:00:00 AM,05/08/2016 12:00:00 AM,WESSEX WATER (Bath Operations),Signing Only,376390,167106,51.402486940121925,-2.340794480323744,"(51.402486940121925, -2.340794480323744)",23,58,231,4,1
202679,"New build chamber in verge, adjacent to Hibernia chamber",Junction of Publow Lane/Peats Hill near ROSE COTTAGE,Completed,26/07/2016 12:00:00 AM,28/07/2016 12:00:00 AM,Bath and North East Somerset Council,Signing Only,362498.19,164326.81,51.376747372847674,-2.540194162799291,"(51.376747372847674, -2.5401941627992906)",7,74,398,20,1
30015097,New Connection,Entrance to 38,Completed,18/07/2016 12:00:00 AM,20/07/2016 12:00:00 AM,WESSEX WATER (Bath Operations),Signing Only,374313.61,163333.89,51.368479535855805,-2.370368935481761,"(51.368479535855805, -2.3703689354817614)",18,5,257,17,1
30015241,Poke out from existing chamber with 1m of Ducting for 3rd party interconnect,Opposite The Globe Public House,Completed,01/08/2016 12:00:00 AM,03/08/2016 12:00:00 AM,001 Hibernia Atlantic UK Limited,Two-Way Signals,370109,165231,51.385330600608427,-2.430926125166637,"(51.38533060060843, -2.4309261251666374)",9,28,68,22,1
30009927,"REPLACE 151M OF 6IN, 4IN CI WITH 151M OF 75MM, 125MM PE AND REPLACE OR TRANSFER APPROX 12 SERVICES.",Outside of Rose bank,Completed,20/06/2016 12:00:00 AM,26/08/2016 12:00:00 AM,WGA - BRISTOL & BATH,Road Closure,376035,168368,51.413819178039994,-2.34598337954447,"(51.413819178039994, -2.3459833795444704)",1,25,51,10,1
30015167,Decayed pole change - erect new pole,Junction of Court Hill and Rankers Lane,Completed,08/08/2016 12:00:00 AM,10/08/2016 12:00:00 AM,1164 SE MENDIP CONSTRUCTION,Signing Only,364486,164374,51.377299910050311,-2.51164033103797,"(51.37729991005031, -2.5116403310379702)",8,41,123,16,1
30015154,Urgent excavation in highway to locate and repair LV cable fault.,Outside 8,Completed,16/07/2016 11:40:00 PM,26/07/2016 12:00:00 AM,1163 NE MENDIP CONSTRUCTION,Give and Take,374260,163778,51.372470301284125,-2.371171326646664,"(51.372470301284125, -2.3711713266466643)",18,5,253,17,1
30015353,Repair Service Leak,5,Completed,30/07/2016 09:00:00 AM,03/08/2016 12:00:00 AM,WESSEX WATER (Bath Operations),Signing Only,377995.46,168263.36,51.412958190348398,-2.317787744950966,"(51.4129581903484, -2.317787744950966)",1,25,34,10,1
202637,REVISED DATE - Carriageway micro asphalt surfacing work - 2 days approx.,Shickle Grove,Completed,02/08/2016 12:00:00 AM,03/08/2016 12:00:00 AM,Bath and North East Somerset Council,Road Closure,373499.06,162176.55,51.35803574802874,-2.381982928455844,"(51.35803574802874, -2.3819829284558436)",30,19,329,19,1
30015341,Section 81/Defect,"The Gatehouse, The Grange",Completed,03/08/2016 12:00:00 AM,05/08/2016 12:00:00 AM,WESSEX WATER (Bath Operations),Signing Only,374629,161254,51.349792452535326,-2.365689449134033,"(51.349792452535326, -2.365689449134033)",10,113,59,10,1
600042,Replacement of Street Lights in Morris Lane,MORRIS LANE BATHEASTONBATHBATH AND NORTH EAST SOMERSET,Completed,14/11/2016 12:00:00 AM,21/12/2016 12:00:00 AM,SSE Street Lighting,Signing Only,378458,167211.5,51.403518277183068,-2.311072847069416,"(51.40351827718307, -2.311072847069416)",1,26,42,10,1
30015172,"Build 1 concrete chamber  915mm x 445mm x 965mm deep in Footway,Install 4m of 1 way poly duct in Verge,Provide 1 core drill(s) into jointbox or building","81M SOUTH OF JUNC LOWER BRISTOL ROAD, STONY LANE",Completed,27/07/2016 12:00:00 AM,29/07/2016 12:00:00 AM,BT,No Carriageway Incursion,371427,165500,51.38781744449178,-2.412008537369,"(51.38781744449178, -2.4120085373689997)",9,28,68,22,1
30012669,ABANDON 198M OF 5IN CI AND LAY 199M OF 180MM PE REINFORCEMENT AND REPLACE OR TRANSFER APPROX 1 SERVICES,"E:377727, N:162231 - E:377534, N:162200",Completed,25/07/2016 12:00:00 AM,02/09/2016 12:00:00 AM,BATH,Road Closure,377725,162231,51.358707620161283,-2.321296204928083,"(51.35870762016128, -2.321296204928083)",10,113,56,10,1
30015340,new supply,o/s 42,Completed,03/08/2016 12:00:00 AM,05/08/2016 12:00:00 AM,Bristol Water,Signing Only,367364.97,167076.61,51.401773361718504,-2.470527177181535,"(51.401773361718504, -2.4705271771815354)",17,82,427,16,1
30014510,Fibre cabling for new customer connection. Bath and NE Somerset BS39 4HU,Hunstrete Lane Jnc Mill lane to Close The Tithe Barn Woollard Bristol Bath and NE Somerset BS39 4HU,Completed,31/08/2016 12:00:00 AM,01/09/2016 12:00:00 AM,BT,Road Closure,363192.37,164505.75,51.378401844101354,-2.530239605472034,"(51.378401844101354, -2.5302396054720337)",7,74,398,20,1
104609,Remedial works to be carried out by ERH  in the evening between 19: 00 and 23:00,Junction of Snow Hill,Completed,01/08/2016 12:00:00 AM,04/08/2016 12:00:00 AM,B&NES - Network Maintenance,Two-Way Signals,375434.01,165848.17,51.391136428441442,-2.354449571254997,"(51.39113642844144, -2.354449571254997)",36,94,486,6,1
30015313,"Replace leaking ferrule on 3"" CI main",1,Completed,28/07/2016 08:38:30 AM,03/08/2016 12:00:00 AM,Bristol Water,Signing Only,362536,158196,51.321625940141892,-2.539003509727745,"(51.32162594014189, -2.5390035097277446)",2,7,270,20,1
30015236,Poke out from existing chamber with 1m of Ducting for 3rd party interconnect,Outside entrance to Sacred Heart Church,Completed,09/08/2016 12:00:00 AM,11/08/2016 12:00:00 AM,001 Hibernia Atlantic UK Limited,Two-Way Signals,357119,163085,51.365200162536347,-2.617324819472676,"(51.36520016253635, -2.6173248194726764)",6,31,80,21,1
600048,Replacement of Street Lights in St Johns Road,ST JOHNS ROAD TIMSBURYBATHBATH AND NORTH EAST SOMERSET,Completed,30/01/2017 12:00:00 AM,08/03/2017 12:00:00 AM,SSE Street Lighting,Signing Only,366847.25,158336.5,51.323157728191127,-2.477151551513627,"(51.32315772819113, -2.4771515515136273)",14,87,462,16,1
30014651,2 joint holes in tarmac footway for new supply,Opposite 5,Completed,12/07/2016 12:00:00 AM,20/07/2016 12:00:00 AM,1164 SE MENDIP CONSTRUCTION,Signing Only,367487,153780,51.282225162782332,-2.467554330145207,"(51.28222516278233, -2.467554330145207)",26,98,516,26,1
30014245,Safe Access to Underground BT footway and carriageway boxes for fibre cabling and jointing works in existing duct. Required for new customer connection,A36 FROM J A366 TO J B3108 JCN OF IFORD LANE BATH AND NORTH EAST SOMERSET BA2 7TQH,Completed,11/08/2016 12:00:00 AM,11/08/2016 12:00:00 AM,BT,Two-Way Signals,378468.5,158448.5,51.324725803562309,-2.31038837555469,"(51.32472580356231, -2.31038837555469)",10,113,54,10,1
30015238,Poke out from existing chamber with 1m of Ducting for 3rd party interconnect,Junction with Scot Lane,Completed,10/08/2016 12:00:00 AM,12/08/2016 12:00:00 AM,001 Hibernia Atlantic UK Limited,Two-Way Signals,356007,162654,51.361239713065515,-2.633242954120957,"(51.361239713065515, -2.6332429541209574)",6,31,82,21,1
30015042,2 Trial holes in Haydon Hill outside Nos. 11 & 19 to locate services in advance of new sewer construction,11-19,Completed,20/07/2016 12:00:00 AM,22/07/2016 12:00:00 AM,WESSEX WATER (Engineering Northern WECS),Priority Working,368972,153880,51.283207443993675,-2.446271887535682,"(51.283207443993675, -2.446271887535682)",12,79,419,24,1
600070,"Please carry out the necessary work to replace the aluminium lighting column with a 6 metre tubular galvanised steel column,",KEYNSHAMBATH AND NORTH EAST SOMERSET,Completed,01/08/2016 12:00:00 AM,03/08/2016 12:00:00 AM,SSE Street Lighting,Signing Only,365894,168576,51.415167943851557,-2.491816693384864,"(51.41516794385156, -2.491816693384864)",16,45,152,3,1
30015225,Poke out from existing chamber with 1m of Ducting for 3rd party interconnect,Junction with Stalcombe Lane,Completed,30/07/2016 12:00:00 AM,03/08/2016 12:00:00 AM,001 Hibernia Atlantic UK Limited,Give and Take,366446,163915,51.373292518393178,-2.483437353073559,"(51.37329251839318, -2.4834373530735587)",8,41,123,16,1
202657,REVISED DATE - Carriageway micro asphalt surfacing work - 1 day approx.,Trinity Road,Completed,08/08/2016 12:00:00 AM,08/08/2016 12:00:00 AM,Bath and North East Somerset Council,Road Closure,375840.6,162693.3,51.362786996279738,-2.348390633991493,"(51.36278699627974, -2.3483906339914933)",19,38,106,18,1
30015229,Poke out from existing chamber with 1m of Ducting for 3rd party interconnect,Opposite Woodborough Mill Farm,Completed,01/08/2016 12:00:00 AM,03/08/2016 12:00:00 AM,001 Hibernia Atlantic UK Limited,Stop/Go Boards,363491,164248,51.376103688801777,-2.525922514743878,"(51.37610368880178, -2.525922514743878)",8,41,123,16,1
30015290,Build 1 precast  chamber in 915mm x 445mm x 965mm deep in Footway,"SS9XDC51, SIDE OF 36 HIGHLAND ROAD ON, FOOTPATHS ASSOCIATED HIGHLAND ROAD",Completed,26/07/2016 01:20:00 PM,29/07/2016 12:00:00 AM,BT,Signing Only,372729,164497,51.378863367256393,-2.393220730712035,"(51.37886336725639, -2.393220730712035)",28,89,469,11,1
30015319,replace out lid & frame also reinstate footpath around pit,Midland Road Bridge Bath BA1 1JD,Completed,31/07/2016 12:00:00 AM,02/08/2016 12:00:00 AM,Imtech Bath & N E Somerset,Signing Only,374511.5,164744.75,51.381174200408971,-2.367627998414305,"(51.38117420040897, -2.367627998414305)",34,55,195,9,1
30013064,LAY 12M OF 125MM PE AND REPLACE OR TRANSFER ANY AFFECTED SERVICES.,O/S 6 - 7,Completed,12/12/2016 12:00:00 AM,23/12/2016 12:00:00 AM,BRISTOL CENTRAL,Give and Take,365435,155895,51.301120833140523,-2.49718011527956,"(51.30112083314052, -2.4971801152795603)",13,67,372,23,1
30015137,Excavate footway to install swept tee,Outside 22 and 24,Completed,21/07/2016 12:00:00 AM,25/07/2016 12:00:00 AM,NATIONAL NOTICING DEPARTMENT,No Carriageway Incursion,365095,167591,51.406262765063794,-2.503208172308248,"(51.40626276506379, -2.5032081723082475)",37,53,189,2,1
202597,Construction of new footway under a road closure,Between Overdale and The Lodge,Completed,20/07/2016 12:00:00 AM,29/08/2016 12:00:00 AM,Bath and North East Somerset Council,Road Closure,368953.32,159214.91,51.33117519953619,-2.447005776568132,"(51.33117519953619, -2.4470057765681315)",9,28,69,22,1
30015257,WECS. Install atplas box for C/P Cello. Owner:Lynsey Smith,5,Completed,04/08/2016 12:00:00 AM,08/08/2016 12:00:00 AM,WESSEX WATER (Engineering Northern WECS),Signing Only,376448,166985,51.401401397100273,-2.339952644034375,"(51.40140139710027, -2.339952644034375)",23,58,217,4,1
30012525,Renovations- snagging,20m to the rhs of entrance to The Linney 10mm,Completed,29/07/2016 12:00:00 AM,02/08/2016 12:00:00 AM,Bristol Water,Road Closure,355899.33,157223.82,51.312407705585024,-2.63411503124363,"(51.312407705585024, -2.63411503124363)",2,6,274,21,1
30012171,REPLACE 336M OF 4IN SI WITH 336M OF 75MM PE AND REPLACE OR TRANSFER APPROX 35 SERVICES.,12,Completed,18/03/2016 12:00:00 AM,29/07/2016 12:00:00 AM,WGA - BRISTOL & BATH,Give and Take,374639,166840,51.40001927078869,-2.365946375250806,"(51.40001927078869, -2.365946375250806)",21,1,233,7,1
30015223,INSTALL METER. Replace existing CST with new ATPLAS box RHS of property marked blue.MH.,75,Completed,26/07/2016 12:00:00 AM,28/07/2016 12:00:00 AM,Bristol Water,Signing Only,368309,166613,51.397658614343094,-2.456915365653898,"(51.397658614343094, -2.4569153656538982)",17,81,423,16,1
30015356,LAY 75M X 75MM PE LP LAY 6M X 90MM PE LP ABANDON 65M X 75MM PE LP ABANDON 11M X 63MM PE LP,"OPP NO. 1 SOUTH PARADE - O/S BUILDING 8 PRATTS HOTEL, SOUTH PARADE",Completed,01/12/2016 12:00:00 AM,31/03/2017 12:00:00 AM,WGA - BRISTOL & BATH,Give and Take,375252,164609,51.379986527768338,-2.356978594266493,"(51.37998652776834, -2.356978594266493)",35,21,13,7,1
30011958,REPLACE TEMPORARY REINSTATEMENT WITH PERMANENT,UPLANDS FARM,Completed,01/08/2016 12:00:00 AM,03/08/2016 12:00:00 AM,BRISTOL SOUTH,Give and Take,366181,166334,51.395026736747113,-2.487475444069777,"(51.39502673674711, -2.4874754440697773)",16,44,151,3,1
30012171,REPLACE 336M OF 4IN SI WITH 336M OF 75MM PE AND REPLACE OR TRANSFER APPROX 35 SERVICES.,22,Completed,18/03/2016 12:00:00 AM,29/07/2016 12:00:00 AM,WGA - BRISTOL & BATH,Give and Take,374608,166829,51.399918971835021,-2.366391191779795,"(51.39991897183502, -2.366391191779795)",21,1,233,7,1
600049,Replacement of Street Lights in Longfellow Road,LONGFELLOW RD WESTFIELDRADSTOCKBATH AND NORTH EAST SOMERSET,Completed,06/03/2017 12:00:00 AM,12/04/2017 12:00:00 AM,SSE Street Lighting,Signing Only,367061.5,154177,51.28577025159052,-2.473691648387019,"(51.28577025159052, -2.473691648387019)",26,100,513,26,1
30014051,"Detailed Examination of Underbridge MLN1 107m 32ch, using a MEWP / ladder and small hand tools. Works to be carried out  between the hours of 22:00hrs Wednesday 27th July to 06.00hrs  Thursday 28th July 2016",Bridge (Rail Over Road)  Named: WESTMORELAND ROAD,Completed,27/07/2016 12:00:00 AM,28/07/2016 12:00:00 AM,NR-WESTERN TERRITORY STRUCTURES ENGINEER,Road Closure,374435,164401,51.378079929041952,-2.368702339598111,"(51.37807992904195, -2.3687023395981113)",33,112,563,12,1
30012724,New Connection,Rear of 15 St Stephen's Close,Completed,25/07/2016 12:00:00 AM,27/07/2016 12:00:00 AM,WESSEX WATER (Bath Operations),Signing Only,374853.91,165925,51.39180171149912,-2.362792035347316,"(51.39180171149912, -2.3627920353473155)",21,1,,7,1
30015333,metering,",6,WEST VIEW ROAD,BRISTOL,KEYNSHAM,BS31 2UA",Completed,02/08/2016 12:00:00 AM,04/08/2016 12:00:00 AM,Bristol Water,Signing Only,365208.74,168584.35,51.415201241926169,-2.501670818865566,"(51.41520124192617, -2.5016708188655663)",24,49,159,1,1
30009966,REPLACE 324M OF 100MM DI WITH 324M OF 75MM PE AND REPLACE OR TRANSFER APPROX 21 SERVICES,JUNC MINSMERE ROAD/HURN LANE - JUNC MINSMERE ROAD/WINDRUSH ROAD,Completed,01/04/2016 12:00:00 AM,31/03/2017 12:00:00 AM,WGA - BRISTOL & BATH,Give and Take,366361,167420,51.404802021789259,-2.484991683206069,"(51.40480202178926, -2.4849916832060686)",16,47,145,3,1
30015128,NEW GAS SERVICE 4M PUBLIC 6M PRIVATE,SIDE OF 3 ROTCOMBE VALE,Completed,15/08/2016 12:00:00 AM,18/08/2016 12:00:00 AM,BRISTOL CENTRAL,Give and Take,364732,158574,51.325165526552183,-2.507529254259057,"(51.32516552655218, -2.5075292542590573)",3,42,138,23,1
202693,Surface Dressing works - REVISED START DATE,Bend to Purnells Development,Completed,13/08/2016 12:00:00 AM,13/08/2016 12:00:00 AM,Bath and North East Somerset Council,Stop/Go Boards,364432.66,156852.76,51.30967049075619,-2.511652722096393,"(51.30967049075619, -2.5116527220963927)",3,43,136,23,1
30015276,Repair Service,12 St Peters Terrace,Completed,28/07/2016 12:00:00 AM,01/08/2016 12:00:00 AM,WESSEX WATER (Bath Operations),Two-Way Signals,373962.16,164764.97,51.381330961868102,-2.375522686462764,"(51.3813309618681, -2.375522686462764)",33,112,560,12,1
202697,Remedial works - REVISED DATE.,Stripped places,Completed,21/08/2016 12:00:00 AM,21/08/2016 12:00:00 AM,Bath and North East Somerset Council,Road Closure,361775.43,157630.97,51.316494813165242,-2.54985657459682,"(51.31649481316524, -2.54985657459682)",2,7,269,20,1
30014997,Slot Cutting,JUNCTION WITH VICTORIA BRIDGE ROAD,Completed,25/07/2016 12:00:00 AM,27/07/2016 12:00:00 AM,Imtech Bath & N E Somerset,Signing Only,374074.25,164835.5,51.381970282817825,-2.373917285393529,"(51.381970282817825, -2.373917285393529)",33,103,538,13,1
30009969,"REPLACE 414M OF 2IN, 4IN ST, DI WITH 414M OF 40MM, 75MM PE AND REPLACE OR TRANSFER APPROX 36 SERVICES",OPPOSITE NO. 38 WINDRUSH ROAD - O/S NO. 11/12 CHERWELL ROAD,Completed,01/04/2016 12:00:00 AM,31/03/2017 12:00:00 AM,WGA - BRISTOL & BATH,Give and Take,366367,167719,51.407490773373283,-2.48493387896753,"(51.40749077337328, -2.4849338789675297)",16,47,141,3,1
30015283,Repair Service,15,Completed,29/07/2016 12:00:00 AM,02/08/2016 12:00:00 AM,WESSEX WATER (Bath Operations),Signing Only,375638.26,162514,51.361166135142845,-2.351284459916305,"(51.361166135142845, -2.351284459916305)",19,38,107,18,1
30012171,REPLACE 336M OF 4IN SI WITH 336M OF 75MM PE AND REPLACE OR TRANSFER APPROX 35 SERVICES.,13,Completed,18/03/2016 12:00:00 AM,29/07/2016 12:00:00 AM,WGA - BRISTOL & BATH,Give and Take,374660,166843,51.400047187897258,-2.365644727437966,"(51.40004718789726, -2.3656447274379655)",21,1,233,7,1
30015322,NEW GAS SERVICE 10M PUBLIC,O/S 71,Completed,23/08/2016 12:00:00 AM,01/09/2016 12:00:00 AM,BRISTOL SOUTH,Two-Way Signals,364822,168946,51.418428979159046,-2.507267732129554,"(51.418428979159046, -2.5072677321295544)",24,49,171,1,1
202587,Trial hole investigation works at each end of the bridge for Post tensioning investigations. Works to be undertaken under lane closures.,North and South ends of Churchill Bridge,Completed,09/01/2017 12:00:00 AM,27/01/2017 12:00:00 AM,Bath and North East Somerset Council,Lane Closure,375003.02,164341.26,51.377568190480297,-2.36053705311675,"(51.3775681904803, -2.36053705311675)",33,109,567,12,1
30014992,12m trenching in tarmac road and grass verge for new supply,Junction of Stidham Lane,Completed,01/08/2016 12:00:00 AM,10/08/2016 12:00:00 AM,1171 SE BRISTOL CONSTRUCTION,Give and Take,367125,168490,51.414467664372815,-2.474108172894476,"(51.414467664372815, -2.474108172894476)",16,45,152,3,1
30009962,REPLACE 123M OF 4IN SI WITH 123M OF 75MM PE AND REPLACE OR TRANSFER APPROX 20 SERVICES,JUNC LAMBOURN ROAD/CHANDAG ROAD - O/S NO. 18 LAMBOURN ROAD,Completed,01/04/2016 12:00:00 AM,31/03/2017 12:00:00 AM,WGA - BRISTOL & BATH,Give and Take,366104,167753,51.407780763946079,-2.488718170700508,"(51.40778076394608, -2.4887181707005084)",16,46,143,3,1
30015234,Poke out from existing chamber with 1m of Ducting for 3rd party interconnect,Opposite entrance to Chew Court Farm,Completed,08/08/2016 12:00:00 AM,10/08/2016 12:00:00 AM,001 Hibernia Atlantic UK Limited,Two-Way Signals,357980,163145,51.365804163854797,-2.604965376933178,"(51.3658041638548, -2.6049653769331775)",6,31,81,21,1
202579,REVISED START DATE FOR 25/07/16 - Carriageway resurfacing between 7 am morning to 7 pm evening,Between Longfellow Road and Westfield Terrace approximate.,Completed,25/07/2016 12:00:00 AM,31/07/2016 12:00:00 AM,Bath and North East Somerset Council,Road Closure,367499.75,154136.82,51.285434239262223,-2.467404109823386,"(51.28543423926222, -2.4674041098233856)",26,97,511,26,1
30015246,leak on inlet,",3,HIGHBURY VIEW,BRISTOL,TEMPLE CLOUD,BS39 5EE",Completed,21/07/2016 04:07:21 PM,29/07/2016 12:00:00 AM,Bristol Water,Signing Only,362534.81,158210.63,51.32175740483251,-2.539022128326988,"(51.32175740483251, -2.5390221283269883)",2,7,270,20,1
30013385,Repair Service Leak,3-4 Isabella Cottages,Completed,25/07/2016 12:00:00 AM,27/07/2016 12:00:00 AM,WESSEX WATER (Bath Operations),Road Closure,375866.08,162338.64,51.359599155107105,-2.348000484795298,"(51.359599155107105, -2.3480004847952975)",19,38,117,18,1
30014754,REPLACE TEMPORARY REINSTATEMENT WITH PERMANENT,11,Completed,04/08/2016 12:00:00 AM,08/08/2016 12:00:00 AM,BATH,Give and Take,374014,164688,51.380641275841086,-2.374772164185817,"(51.380641275841086, -2.374772164185817)",33,112,559,12,1
30006760,REPLACE 127M OF 6IN CI WITH 127M OF 125MM PE AND REPLACE OR TRANSFER APPROX 18 SERVICES,Junction of spring field close,Completed,01/08/2016 12:00:00 AM,09/09/2016 12:00:00 AM,WGA - BRISTOL & BATH,Give and Take,372873,164343,51.377485614215722,-2.391139963856317,"(51.37748561421572, -2.391139963856317)",28,89,464,11,1
202591,DELAYED START DATE - S278 Works to Bradford Road / New roundabout construction to Bradford Road opp Greendown Place.,Bradford Road opp Greendown Place.,Completed,06/09/2016 12:00:00 AM,13/10/2016 12:00:00 AM,Bath and North East Somerset Council,Signing Only,375473.26,162380.68,51.359960253111538,-2.353644998716969,"(51.35996025311154, -2.353644998716969)",19,38,118,18,1
30015227,Poke out from existing chamber with 1m of Ducting for 3rd party interconnect,Junction with Cockers Hill,Completed,31/07/2016 12:00:00 AM,03/08/2016 12:00:00 AM,001 Hibernia Atlantic UK Limited,Give and Take,364681,164577,51.379137348447713,-2.50885900650235,"(51.37913734844771, -2.50885900650235)",8,41,123,16,1
30015163,Repair Service,5,Completed,22/07/2016 12:00:00 AM,26/07/2016 12:00:00 AM,WESSEX WATER (Bath Operations),Signing Only,377230.91,164138.64,51.375840514874604,-2.328514913337929,"(51.375840514874604, -2.328514913337929)",22,29,70,12,1
30015218,leaking cst,27 cold lay,Completed,21/07/2016 11:33:24 AM,27/07/2016 12:00:00 AM,Bristol Water,Signing Only,366145.99,167753.7,51.407789574737755,-2.488114562861755,"(51.407789574737755, -2.488114562861755)",16,47,144,3,1
30014673,NEW GAS SERVICE 3M PUBLIC 10M PRIVATE,20,Completed,14/07/2016 12:00:00 AM,21/07/2016 12:00:00 AM,BRISTOL SOUTH,Give and Take,365210,168529,51.414703653832639,-2.501647251513866,"(51.41470365383264, -2.5016472515138655)",24,49,159,1,1
30014935,Tree trimming - No excavation,"At grids 369140, 153259.",Completed,04/08/2016 12:00:00 AM,04/08/2016 12:00:00 AM,1167 SHEP/WELL M&R,Give and Take,369140,153259,51.277632863250254,-2.443809294291523,"(51.277632863250254, -2.443809294291523)",,,,,
30015372,Replace cst & fit meter,26,Completed,04/08/2016 12:00:00 AM,08/08/2016 12:00:00 AM,Bristol Water,Signing Only,365441.18,156757.05,51.308872268244812,-2.497175259830251,"(51.30887226824481, -2.4971752598302506)",13,69,361,23,1
30011958,REPLACE TEMPORARY REINSTATEMENT WITH PERMANENT,OPP 17,Completed,01/08/2016 12:00:00 AM,03/08/2016 12:00:00 AM,BRISTOL SOUTH,Give and Take,366030,166611,51.397508273359101,-2.489672316622997,"(51.3975082733591, -2.489672316622997)",16,44,151,3,1
30015093,Urgent excavation in highway to locate and repair street light cable fault.,Outside 17,Completed,13/07/2016 09:00:00 AM,20/07/2016 12:00:00 AM,1163 NE MENDIP CONSTRUCTION,Signing Only,366882,154879,51.292071823629541,-2.476330749924621,"(51.29207182362954, -2.476330749924621)",11,8,282,25,1
30009927,"REPLACE 151M OF 6IN, 4IN CI WITH 151M OF 75MM, 125MM PE AND REPLACE OR TRANSFER APPROX 12 SERVICES.",LIMBERLOST,Completed,20/06/2016 12:00:00 AM,26/08/2016 12:00:00 AM,WGA - BRISTOL & BATH,Road Closure,375992,168374,51.413871298630909,-2.346602075692793,"(51.41387129863091, -2.346602075692793)",1,25,51,10,1
30011958,REPLACE TEMPORARY REINSTATEMENT WITH PERMANENT,uplands farm wellsway,Completed,01/08/2016 12:00:00 AM,03/08/2016 12:00:00 AM,BRISTOL SOUTH,Give and Take,365980,166694,51.398251544047675,-2.49039897137457,"(51.398251544047675, -2.4903989713745704)",16,44,151,3,1
30014880,NEW GAS SERVICE 4M PUBLIC 8M PRIVATE,19,Completed,20/07/2016 12:00:00 AM,25/07/2016 12:00:00 AM,BATH,Give and Take,372025,164331,51.377336389124586,-2.403322496432015,"(51.377336389124586, -2.4033224964320152)",28,92,467,11,1
30015165,Change overhead equipment from old pole to new pole and remove old pole,Outside Mancurthill,Completed,02/08/2016 12:00:00 AM,04/08/2016 12:00:00 AM,1164 SE MENDIP CONSTRUCTION,Two-Way Signals,361971,161755,51.353588381343123,-2.547492253104562,"(51.35358838134312, -2.547492253104562)",5,34,102,20,1
30015161,Lift manhole cover and test existing monitoring equipment,Norfolk Buildings,Completed,27/07/2016 12:00:00 AM,29/07/2016 12:00:00 AM,WESSEX WATER (Engineering Northern WECS),Signing Only,374361,164824,51.381879964750503,-2.369796207202473,"(51.3818799647505, -2.3697962072024734)",34,115,211,9,1
30015039,Install 11m of 1 way poly duct in Verge,"O/S 197 TO O/S 203, HAYCOMBE DRIVE, BATH.",Completed,18/07/2016 12:00:00 AM,20/07/2016 12:00:00 AM,BT,Signing Only,372316,164061,51.374923026116157,-2.399120495927723,"(51.37492302611616, -2.399120495927723)",27,86,439,15,1
30015157,Urgent excavation in highway to locate and repair LV cable fault.,Outside 66,Completed,17/07/2016 11:30:00 AM,25/07/2016 12:00:00 AM,1163 NE MENDIP CONSTRUCTION,Signing Only,379531,166944,51.401153010926123,-2.295632279899461,"(51.40115301092612, -2.295632279899461)",1,26,43,10,1
30012171,REPLACE 336M OF 4IN SI WITH 336M OF 75MM PE AND REPLACE OR TRANSFER APPROX 35 SERVICES.,17,Completed,18/03/2016 12:00:00 AM,29/07/2016 12:00:00 AM,WGA - BRISTOL & BATH,Give and Take,374720,166853,51.400139791697562,-2.364782976749542,"(51.40013979169756, -2.3647829767495425)",21,1,233,7,1
30009950,REPLACE 141M OF 4IN SI WITH 141M OF 75MM PE AND REPLACE OR TRANSFER APPROX 17 SERVICES,JUNC KENNET ROAD/WELLAND ROAD - JUNC KENNET ROAD/CHANDAG ROAD,Completed,01/04/2016 12:00:00 AM,31/03/2017 12:00:00 AM,WGA - BRISTOL & BATH,Give and Take,366111,167945,51.409507508962022,-2.488635944390195,"(51.40950750896202, -2.4886359443901953)",16,46,142,3,1
202673,Carriageway reconstruction and drainage works.,North Parade Rd (Pulteney Rd to North Parade Bridge),Completed,11/09/2016 12:00:00 AM,09/10/2016 12:00:00 AM,Bath and North East Somerset Council,Road Closure,375427.18,164707.44,51.380879294869771,-2.354468419789267,"(51.38087929486977, -2.3544684197892667)",33,111,564,12,1
30015328,NOTICE RAISED FOR REINSTATEMENT ONLY,O/S MILL FARM COTTAGE IN VERGE,Completed,02/08/2016 12:00:00 AM,04/08/2016 12:00:00 AM,FROME,Give and Take,370006,167345,51.40433290035984,-2.432585547760723,"(51.40433290035984, -2.432585547760723)",1,25,50,10,1
202681,"New build chamber in verge, adjacent to Hibernia chamber",115mts West of lane to Stanton Drew on B3130,Completed,29/07/2016 12:00:00 AM,02/08/2016 12:00:00 AM,Bath and North East Somerset Council,Signing Only,359469.92,163587.1,51.369887760472025,-2.583615830777512,"(51.369887760472025, -2.583615830777512)",5,34,101,20,1
30009927,"REPLACE 151M OF 6IN, 4IN CI WITH 151M OF 75MM, 125MM PE AND REPLACE OR TRANSFER APPROX 12 SERVICES.",At the Side of the old bakehouse,Completed,20/06/2016 12:00:00 AM,26/08/2016 12:00:00 AM,WGA - BRISTOL & BATH,Road Closure,375939,168383,51.413949963902262,-2.347364766008086,"(51.41394996390226, -2.3473647660080865)",1,25,51,10,1
202651,REVISED DATE - Carriageway micro asphalt surfacing work - 1 day approx.,Main Street,Completed,06/08/2016 12:00:00 AM,06/08/2016 12:00:00 AM,Bath and North East Somerset Council,Road Closure,363194.55,155535.92,51.297751295451462,-2.529278218718468,"(51.29775129545146, -2.5292782187184675)",3,43,133,23,1
202680,"New build chamber in f/w, adjacent to Hibernia chamber",Junction of Parsonage Lane/Pensford Hill (A37),Completed,27/07/2016 12:00:00 AM,29/07/2016 12:00:00 AM,Bath and North East Somerset Council,Signing Only,361628.28,164428.37,51.37760221349064,-2.552702962191479,"(51.37760221349064, -2.5527029621914794)",7,74,399,20,1
30015309,Repair Service,57,Completed,01/08/2016 12:00:00 AM,03/08/2016 12:00:00 AM,WESSEX WATER (Bath Operations),Signing Only,375937,164426,51.378370677142307,-2.347123934585475,"(51.37837067714231, -2.3471239345854746)",22,30,76,12,1
30015181,Tree trimming - No excavation,Outside 3,Completed,15/08/2016 12:00:00 AM,15/08/2016 12:00:00 AM,1167 SHEP/WELL M&R,Give and Take,368961,155122,51.294374305825954,-2.446537963344056,"(51.294374305825954, -2.446537963344056)",12,76,415,24,1
30006760,REPLACE 127M OF 6IN CI WITH 127M OF 125MM PE AND REPLACE OR TRANSFER APPROX 18 SERVICES,12,Completed,01/08/2016 12:00:00 AM,09/09/2016 12:00:00 AM,WGA - BRISTOL & BATH,Multi-Way Signals,372856,164362,51.377655635558192,-2.39138566631408,"(51.37765563555819, -2.3913856663140796)",28,89,464,11,1
30015145,Build new box in carriageway,o/s 17-18 Old Orchard Street,Completed,20/07/2016 12:00:00 AM,22/07/2016 12:00:00 AM,NATIONAL NOTICING DEPARTMENT,Give and Take,375190.29,164639.05,51.380254015154449,-2.357867362477722,"(51.38025401515445, -2.3578673624777218)",35,20,12,7,1
30015363,Install 4m of 1 way poly duct in Footway,"OS 47, MINSTER WAY",Completed,04/08/2016 12:00:00 AM,08/08/2016 12:00:00 AM,BT,Signing Only,376469.56,165705.37,51.389896545976754,-2.339557463140762,"(51.389896545976754, -2.3395574631407623)",22,29,71,12,1
30015258,TRACE AND REPAIR GAS ESCAPE AND PERMANENTLY REINSTATE WHERE POSSIBLE.,WESTOE,Completed,23/07/2016 02:00:00 PM,29/07/2016 12:00:00 AM,BATH,Give and Take,376188,167764,51.408394826856423,-2.343742666283252,"(51.40839482685642, -2.3437426662832515)",1,25,51,10,1
30015317,Urgent excavation in highway to locate and repair LV cable fault.,Outside 3,Completed,28/07/2016 12:05:00 AM,04/08/2016 12:00:00 AM,1163 NE MENDIP CONSTRUCTION,Signing Only,372617,163891,51.373409139481687,-2.394783017636922,"(51.37340913948169, -2.3947830176369216)",27,83,453,15,1
30015042,2 Trial holes in Haydon Hill outside Nos. 11 & 19 to locate services in advance of new sewer construction,11-19,Completed,20/07/2016 12:00:00 AM,22/07/2016 12:00:00 AM,WESSEX WATER (Engineering Northern WECS),Priority Working,368990,153839,51.282839775336072,-2.446010234607856,"(51.28283977533607, -2.4460102346078565)",12,79,419,24,1
30015377,"*****URGENT, HIGH PRIORITY PLEASE, very bad leak,",2,Completed,01/08/2016 02:37:04 PM,05/08/2016 12:00:00 AM,Bristol Water,Signing Only,356238.14,162027.82,51.355627544183193,-2.629846137462946,"(51.35562754418319, -2.6298461374629465)",6,31,83,21,1
30015117,New Connection,26,Completed,19/07/2016 12:00:00 AM,21/07/2016 12:00:00 AM,WESSEX WATER (Bath Operations),Two-Way Signals,373008.91,165105.29,51.384346204686942,-2.389245472675729,"(51.38434620468694, -2.3892454726757286)",29,15,325,8,1
30002341,Repair Service,10,Completed,18/07/2016 12:00:00 AM,20/07/2016 12:00:00 AM,WESSEX WATER (Bath Operations),Signing Only,374490,163840,51.373038199745565,-2.367871663952811,"(51.373038199745565, -2.367871663952811)",18,5,250,17,1
30015089,Urgent Pole Change,Outside Wansdyke View,Completed,12/07/2016 04:00:00 PM,20/07/2016 12:00:00 AM,1164 SE MENDIP CONSTRUCTION,Signing Only,364684,164583,51.37919148347968,-2.508816502101185,"(51.37919148347968, -2.508816502101185)",8,41,123,16,1
30009965,"REPLACE 920M OF 4IN, 100MM, 4IN, 8IN DI, SI WITH 920M OF 180MM, 75MM PE AND REPLACE OR TRANSFER APPROX 107 SERVICES",JUNC HURN LANE/MANOR ROAD - JUNC HURN LANE/WELLSWAY,Completed,01/04/2016 12:00:00 AM,31/03/2017 12:00:00 AM,WGA - BRISTOL & BATH,Give and Take,366389,167192,51.402753673457823,-2.484567486152911,"(51.40275367345782, -2.4845674861529106)",16,46,147,3,1
30015379,Repair Dangerous Cover,14,Completed,01/08/2016 02:30:00 PM,03/08/2016 12:00:00 AM,WESSEX WATER (Bath Operations),Signing Only,373730.73,162142.47,51.357740125521239,-2.378653326096742,"(51.35774012552124, -2.378653326096742)",30,60,334,19,1
30011528,LARKHALL PLACE CONNECTION POINT FOR NOTICING ONLY,J/O LARKHALL PLACE AND ST.SAVIOUR'S ROAD,Completed,15/08/2016 12:00:00 AM,26/08/2016 12:00:00 AM,WGA - BRISTOL & BATH,Signing Only,376107,166622,51.398123167485814,-2.344829921957719,"(51.398123167485814, -2.3448299219577193)",23,56,229,4,1
30015270,Tree trimming - No excavation,Outside Colwell Hall to junction of Main Road,Completed,23/08/2016 12:00:00 AM,23/08/2016 12:00:00 AM,1167 SHEP/WELL M&R,Two-Way Signals,361824,158862,51.327566674760156,-2.549291954295028,"(51.327566674760156, -2.5492919542950285)",5,35,100,20,1
202696,Surface Dressing works - REVISED DATES.,Whole Road,Completed,20/08/2016 12:00:00 AM,21/08/2016 12:00:00 AM,Bath and North East Somerset Council,Road Closure,368787.17,162527.45,51.360950521867565,-2.449682062978943,"(51.360950521867565, -2.449682062978943)",8,40,130,16,1
600060,Replacement of Street Lights in Audley Park Road,AUDLEY PARK RD LOWER WESTONBATHBATH AND NORTH EAST SOMERSET,Completed,17/10/2016 12:00:00 AM,23/11/2016 12:00:00 AM,SSE Street Lighting,Signing Only,373729.5,165436.5,51.387358219265373,-2.378915568887948,"(51.38735821926537, -2.3789155688879484)",34,54,203,9,1
30006760,REPLACE 127M OF 6IN CI WITH 127M OF 125MM PE AND REPLACE OR TRANSFER APPROX 18 SERVICES,Outside of number 1 high field,Completed,01/08/2016 12:00:00 AM,09/09/2016 12:00:00 AM,WGA - BRISTOL & BATH,Give and Take,372875,164323,51.377305881327757,-2.391109695697719,"(51.37730588132776, -2.391109695697719)",28,89,464,11,1
30015259,Urgent excavation in highway to locate and repair LV cable fault.,o/s flat 8 321 bath road,Completed,22/07/2016 08:05:00 PM,01/08/2016 12:00:00 AM,1171 SE BRISTOL CONSTRUCTION,Give and Take,367416,167725,51.407606180160236,-2.46985340367695,"(51.407606180160236, -2.4698534036769497)",17,82,427,16,1
30006760,REPLACE 127M OF 6IN CI WITH 127M OF 125MM PE AND REPLACE OR TRANSFER APPROX 18 SERVICES,Outside of 16 innox,Completed,01/08/2016 12:00:00 AM,09/09/2016 12:00:00 AM,WGA - BRISTOL & BATH,Give and Take,372866,164350,51.377548218349723,-2.391241072070537,"(51.37754821834972, -2.391241072070537)",28,89,464,11,1
30009926,REPLACE 1051M OF 6IN CI WITH 1051M OF 125MM PE AND REPLACE OR TRANSFER APPROX 18 SERVICES.,At the Side of Valley view,Completed,01/07/2016 12:00:00 AM,26/08/2016 12:00:00 AM,WGA - BRISTOL & BATH,Two-Way Signals,376183,167667,51.407522445827375,-2.343808005956895,"(51.407522445827375, -2.343808005956895)",1,25,51,10,1
600071,"Please carry out the necessary work to replace the aluminium lighting column with a 6 metre tubular galvanised steel column,",HIGH LITTLETONBRISTOLBATH AND NORTH EAST SOMERSET,Completed,01/08/2016 12:00:00 AM,03/08/2016 12:00:00 AM,SSE Street Lighting,Signing Only,364687,158659,51.325926992350801,-2.508183488975194,"(51.3259269923508, -2.5081834889751935)",3,42,138,23,1
30015275,new supply,opp 24,Completed,28/07/2016 12:00:00 AM,02/08/2016 12:00:00 AM,Bristol Water,Signing Only,357250.32,163100.52,51.365349631879994,-2.615440542899695,"(51.365349631879994, -2.615440542899695)",6,31,80,21,1
30015254,Sewer Repair - 19:00 Work Start. Night Works.,10m south east of 44,Completed,17/08/2016 12:00:00 AM,19/08/2016 12:00:00 AM,WESSEX WATER (Northern Waste R&M),Multi-Way Signals,365016,168912,51.418135322549503,-2.504474657151555,"(51.4181353225495, -2.5044746571515546)",24,49,171,1,1
30014273,REPLACE 51M OF 2IN ST WITH 51M OF 63MM PE AND REPLACE OR TRANSFER APPROX 8 SERVICES.,O/S NO.38 BRADFORD PARK TO O/S NO.28 BRADFORD PARK.,Completed,30/08/2016 12:00:00 AM,30/09/2016 12:00:00 AM,WGA - BRISTOL & BATH,Signing Only,375217,162710,51.362910159990591,-2.357348438492938,"(51.36291015999059, -2.3573484384929375)",19,39,108,18,1
30006760,REPLACE 127M OF 6IN CI WITH 127M OF 125MM PE AND REPLACE OR TRANSFER APPROX 18 SERVICES,20,Completed,01/08/2016 12:00:00 AM,09/09/2016 12:00:00 AM,WGA - BRISTOL & BATH,Give and Take,372896,164276,51.376884290762554,-2.390804382059158,"(51.376884290762554, -2.3908043820591582)",28,89,464,11,1
600021,REPLACE 1NO. CONCRETE COLUMNS (LC4) WITH 5M STEEL COLUMNS. REPLACE LC 7 WITH 5M MID HINGE COLUMN.,LOWER WESTONBATHBATH AND NORTH EAST SOMERSET,Completed,25/07/2016 12:00:00 AM,29/07/2016 12:00:00 AM,SSE Street Lighting,Signing Only,373414,165564,51.388489869895366,-2.383459029832925,"(51.388489869895366, -2.3834590298329252)",34,54,197,9,1
30009958,REPLACE 133M OF 4IN DI WITH 133M OF 75MM PE AND REPLACE OR TRANSFER APPROX 16 SERVICES,JUNC EVENLODE WAY/WAVENEY ROAD - JUNC EVENLODE WAY/HURN LANE,Completed,01/04/2016 12:00:00 AM,31/03/2017 12:00:00 AM,WGA - BRISTOL & BATH,Give and Take,366272,167307,51.403780702277224,-2.486260339855922,"(51.403780702277224, -2.4862603398559218)",16,47,148,3,1
202683,"New build chamber in f/w (outside church), 20mt of c/w dig required to lay duct from Hibernia chamber to new chamber","High Street Chew Magna, outside entrance to Sacred Heart Church",Completed,02/08/2016 12:00:00 AM,04/08/2016 12:00:00 AM,Bath and North East Somerset Council,Signing Only,357114.74,163082.17,51.365174395056954,-2.617385663500759,"(51.365174395056954, -2.6173856635007593)",6,31,80,21,1
202675,8m of c/w dig to lay duct from Hibernia to new chamber in verge,"Junction of Court Hill/Cockers Hill, Compton Dando",Completed,18/07/2016 12:00:00 AM,20/07/2016 12:00:00 AM,Bath and North East Somerset Council,Signing Only,364484.93,164378.78,51.377342821278503,-2.511656183151447,"(51.3773428212785, -2.511656183151447)",8,41,123,16,1
30015360,NEW GAS SERVICE 4M PUBLIC 10M PRIVATE,O/S 9 BONHILL ROAD,Completed,30/08/2016 12:00:00 AM,02/09/2016 12:00:00 AM,BRISTOL CENTRAL,Two-Way Signals,358811,159865,51.336374036424949,-2.592648769335106,"(51.33637403642495, -2.592648769335106)",4,33,89,21,1
30015239,Repair Service,1,Completed,26/07/2016 12:00:00 AM,28/07/2016 12:00:00 AM,WESSEX WATER (Bath Operations),Signing Only,372950.91,165506.17,51.387947916310395,-2.390109569745332,"(51.387947916310395, -2.390109569745332)",29,16,319,8,1
30015014,NEW GAS SERVICE 6M PUBLIC,O/S 26,Completed,03/08/2016 12:00:00 AM,09/08/2016 12:00:00 AM,BATH,Give and Take,375794,167025,51.401733388662151,-2.349356565823804,"(51.40173338866215, -2.349356565823804)",23,56,223,4,1
30009927,"REPLACE 151M OF 6IN, 4IN CI WITH 151M OF 75MM, 125MM PE AND REPLACE OR TRANSFER APPROX 12 SERVICES.",SOUTH VIEW,Completed,20/06/2016 12:00:00 AM,26/08/2016 12:00:00 AM,WGA - BRISTOL & BATH,Road Closure,375910,168394,51.414047632242145,-2.347782503030324,"(51.414047632242145, -2.3477825030303237)",1,25,51,10,1
30014897,1 joint hole in tarmac footway and 20m trenching in tarmac footway for new supply,Outside 4,Completed,18/07/2016 12:00:00 AM,25/07/2016 12:00:00 AM,1163 NE MENDIP CONSTRUCTION,Signing Only,364533,158409,51.32366953390725,-2.510368576572348,"(51.32366953390725, -2.510368576572348)",3,42,139,23,1
30014922,"Build 1 precast  chamber in 915mm x 445mm x 965mm deep in Footway,Demolish 1 existing jointbox(s) or cabinet base(s),Reposition 190m of 1 way  poly duct in verge","OPP JNC BRADFORD PARK TO OPP 21, FOX HILL",Completed,18/07/2016 12:00:00 AM,29/07/2016 12:00:00 AM,BT,Signing Only,375286.18,162715.93,51.362966508029274,-2.356355232293991,"(51.362966508029274, -2.3563552322939914)",19,36,116,18,1
202682,"New build chamber in verge, opposite to Hibernia chamber","Stanton Road, Chew Magna, opposite entrance to Chew Court Farm",Completed,01/08/2016 12:00:00 AM,03/08/2016 12:00:00 AM,Bath and North East Somerset Council,Signing Only,357990.33,163123.05,51.365607574005345,-2.604814404107454,"(51.365607574005345, -2.604814404107454)",6,31,78,21,1
30015127,TRACE AND REPAIR GAS ESCAPE AND PERMANENTLY REINSTATE WHERE POSSIBLE.,14,Completed,14/07/2016 03:46:00 PM,20/07/2016 12:00:00 AM,BATH,Give and Take,375232,164967,51.383204598121559,-2.357291038211414,"(51.38320459812156, -2.357291038211414)",35,20,11,7,1
30015335,TRACE AND REPAIR GAS ESCAPE AND PERMANENTLY REINSTATE WHERE POSSIBLE.,O/S COUNCIL OFFICES,Completed,29/07/2016 09:45:00 AM,04/08/2016 12:00:00 AM,BATH,Give and Take,366478,154189,51.285843986054779,-2.482059307867456,"(51.28584398605478, -2.4820593078674555)",11,11,291,25,1
600047,Replacement of Street Lights in Trenchyard Road,TRENCHARD ROAD SALTFORDBATH AND NORTH EAST SOMERSET,Completed,23/01/2017 12:00:00 AM,01/03/2017 12:00:00 AM,SSE Street Lighting,Signing Only,367832.75,167052.75,51.401585646211323,-2.463800762368776,"(51.40158564621132, -2.4638007623687765)",17,82,433,16,1
30015184,Tree trimming - No excavation,Opposite Eden Lodge to Outside Kemlyn House,Completed,17/08/2016 12:00:00 AM,17/08/2016 12:00:00 AM,1167 SHEP/WELL M&R,Stop/Go Boards,366411,153456,51.279249270510313,-2.482950828985948,"(51.27924927051031, -2.482950828985948)",25,12,300,27,1
30015192,Urgent excavation in highway to locate and repair LV cable fault.,Rear of 9 Stall Street,Completed,19/07/2016 11:00:00 PM,27/07/2016 12:00:00 AM,1163 NE MENDIP CONSTRUCTION,Signing Only,375065,164670,51.380526785717628,-2.35966974307256,"(51.38052678571763, -2.3596697430725597)",35,20,12,7,1
202640,REVISED DATE - Carriageway micro asphalt surfacing work - 1 day approx.,Wansdyke Road,Completed,03/08/2016 12:00:00 AM,03/08/2016 12:00:00 AM,Bath and North East Somerset Council,Road Closure,373542.84,162373.39,51.359807680908261,-2.381368899484003,"(51.35980768090826, -2.3813688994840034)",30,19,328,19,1
30015326,Repair Service,14,Completed,02/08/2016 12:00:00 AM,04/08/2016 12:00:00 AM,WESSEX WATER (Bath Operations),Signing Only,374589,164885,51.382438743553408,-2.366524517286019,"(51.38243874355341, -2.3665245172860194)",34,55,192,9,1
30015263,Urgent excavation in highway to locate and repair LV cable fault.,Outside  54,Completed,24/07/2016 10:00:00 AM,02/08/2016 12:00:00 AM,1163 NE MENDIP CONSTRUCTION,Signing Only,374578,164272,51.376926480689775,-2.366638506325816,"(51.376926480689775, -2.3666385063258164)",33,109,561,12,1
202665,Replace existing drainage system.,Stanton Road  junction with Norton Lane to bridge over River Chew.,Completed,22/08/2016 12:00:00 AM,02/09/2016 12:00:00 AM,Bath and North East Somerset Council,Road Closure,357991.84,163176.67,51.366089792491003,-2.604799069090299,"(51.366089792491, -2.604799069090299)",6,31,78,21,1
30015140,Repair Service,24,Completed,21/07/2016 12:00:00 AM,25/07/2016 12:00:00 AM,WESSEX WATER (Bath Operations),Signing Only,372862.61,163786.97,51.372485601425254,-2.391246593371629,"(51.372485601425254, -2.3912465933716294)",27,85,435,15,1
30012171,REPLACE 336M OF 4IN SI WITH 336M OF 75MM PE AND REPLACE OR TRANSFER APPROX 35 SERVICES.,33,Completed,18/03/2016 12:00:00 AM,29/07/2016 12:00:00 AM,WGA - BRISTOL & BATH,Give and Take,374420,166791,51.399568812209537,-2.369090826046493,"(51.39956881220954, -2.369090826046493)",21,1,233,7,1
30014856,Safe Access to Underground BT footway and carriageway boxes for fibre cabling and jointing works in existing duct. Required for new customer connection,WATERSIDE RD JCN OF WELLS RD RADSTOCK BATH AND NE SOMERSET BA3 3XS,Completed,01/08/2016 12:00:00 AM,02/08/2016 12:00:00 AM,BT,Multi-Way Signals,367484.5,154088.5,51.284998896685167,-2.467618356501854,"(51.28499889668517, -2.467618356501854)",26,98,514,26,1
30012171,REPLACE 336M OF 4IN SI WITH 336M OF 75MM PE AND REPLACE OR TRANSFER APPROX 35 SERVICES.,11,Completed,18/03/2016 12:00:00 AM,29/07/2016 12:00:00 AM,WGA - BRISTOL & BATH,Give and Take,374622,166836,51.39998254125998,-2.366190453157016,"(51.39998254125998, -2.3661904531570164)",21,1,233,7,1
30015364,Bad leak,47,Completed,01/08/2016 12:38:17 PM,05/08/2016 12:00:00 AM,Bristol Water,Signing Only,369451.04,155143.75,51.294596474528618,-2.439512028699536,"(51.29459647452862, -2.4395120286995358)",12,77,412,24,1
400257,Crash Barrier Repair,On bend heading towards Bristol,Completed,08/08/2016 12:00:00 AM,02/09/2016 12:00:00 AM,B&NES - Contractor Skanska,Lane Closure,361771,165926,51.391077401615775,-2.550814202149109,"(51.391077401615775, -2.5508142021491094)",7,74,399,20,1
30013066,LAY 87M OF 125MM PE AND REPLACE OR TRANSFER ANY AFFECTED SERVICES.,O/S NO.6 - JUNC OF OAKLANDS & WINTERFIELD RD,Completed,28/11/2016 12:00:00 AM,23/12/2016 12:00:00 AM,BRISTOL CENTRAL,Multi-Way Signals,365451,155900,51.301166764886169,-2.49695110865968,"(51.30116676488617, -2.49695110865968)",13,67,372,23,1
30015343,"Install 8m of 1 way poly duct in Footway,Provide 1 core drill(s) into jointbox or building","SS9XEB43, FROM O/S 18 TO S/O 3 BLOOMSFIELD AVENUE, BLOOMFIELD CLOSE",Completed,29/07/2016 12:40:00 PM,02/08/2016 12:00:00 AM,BT,Signing Only,366792.93,159315.31,51.331955436843728,-2.478022597739982,"(51.33195543684373, -2.4780225977399817)",14,88,455,16,1
